attraction_id,attraction_name,ratings,no_of_ratings,attraction_type,description,Latitude,Longitude,city,keywords,images_url
1,Citadel of Saladin,4.6,24755,Tourist attraction,"Sights and landmarks, Historic Sites",30.0287457,31.2597144,cairo,"Tourist attraction Sights and landmarks, Historic Sites",https://encrypted-tbn0.gstatic.com/images?q=tbn:ANd9GcSb_U6iC1v3zAf1d3mlnZAC-23McOCITRI2U1lr_C0nHr-Mx-VGRTvvFQIbJA&s
2,Cairo Tower,4.3,23202,Tourist attraction,Observation Decks & Towers,30.045915,31.2242898,cairo,Tourist attraction Observation Decks & Towers,https://encrypted-tbn0.gstatic.com/images?q=tbn:ANd9GcRo-kp-aRXxJqzQs-KDadeL1HzYc96L-ZzmSlpsZ2r9xn9sUQFHkgnTcfw-QA&s
3,Khan el-Khalili,4.4,45558,Bazar,Flea & Street Markets,30.0477386,31.2622538,cairo,Bazar Flea & Street Markets,https://encrypted-tbn0.gstatic.com/images?q=tbn:ANd9GcSvy057uhivz_SuJ_fZl0nX5PhGL5nw-mtfKku1cuHVWxGoc4ujCtoyhzI4qkA&s
4,Al-Azhar Park,4.5,29934,Park,Parks,30.040758,31.2647327,cairo,Park Parks,https://encrypted-tbn0.gstatic.com/images?q=tbn:ANd9GcQt0yDPWjPuekdb7cbZcnqRoRwxxqBnTd9MQH_8Ow0I2n7fK8vhpnsSWIWY-Q&s
5,Prince Mohamed Ali Palace (Al Manial Palace),4.6,6439,Historical landmark,History Museums,30.0289507,31.230013,cairo,Historical landmark History Museums,https://encrypted-tbn0.gstatic.com/images?q=tbn:ANd9GcSdld7PpU5jLvdlAwk-rB8fm7eFZATyLImzfgLQ6TdB0ZLL4BrXWhAq1ZDOUQ&s
6,Al-Azhar Mosque,4.8,13719,Mosque,Religious Sites,30.045688,31.2626851,cairo,Mosque Religious Sites,https://encrypted-tbn0.gstatic.com/images?q=tbn:ANd9GcRzbGNyrtMST81WZTfSGS41XyH0ft-TN9ZPTcTqCjCl57CMpduzkhpY0qG4SA&s
7,Tahrir Square,4.6,7900,Tourist attraction,Points of Interest & Landmarks,30.0443994,31.2357188,cairo,Tourist attraction Points of Interest & Landmarks,https://encrypted-tbn0.gstatic.com/images?q=tbn:ANd9GcS9af-BbDbPZzXxwcyFgzRVeiijEAxUCuHH0NDSsYthrLES81tq9dFuHmJCp3w&s
8,Mosque-Madrasa of Sultan Hassan,4.8,3372,Mosque,Historic Sites  Religious Sites,30.0322791,31.2561704,cairo,Mosque Historic Sites  Religious Sites,https://encrypted-tbn0.gstatic.com/images?q=tbn:ANd9GcS465F4hBNy0RTIKnHz4p4Y0vkwShRLP4EpGni3jbbD3XhqwvI0JZB9l7rjPg&s
9,Mosque of Ibn Tulun,4.7,3463,Mosque,Historic Sites  Religious Sites,30.028691,31.2493941,cairo,Mosque Historic Sites  Religious Sites,https://encrypted-tbn0.gstatic.com/images?q=tbn:ANd9GcTTqj06fwveQgZkdCnoYn_8Gnkli7sDp6tTNK4U22O1duV3YByFeMD6qktULuo&s
10,Pharaonic Village,4.3,13603,Tourist attraction,Historic Sites Points of Interest & Landmarks,29.9973207,31.2147781,giza,Tourist attraction Historic Sites Points of Interest & Landmarks,https://encrypted-tbn0.gstatic.com/images?q=tbn:ANd9GcRWMvqJhqekFEKEdi90kIdPZiMeYTaPfjzk2a9VFH9UNUCs7yfojP99rrTGwQ&s
11,The Coptic Museum,4.5,893,Museum,Art Museums,30.0057645,31.2303972,cairo,Museum Art Museums,https://encrypted-tbn0.gstatic.com/images?q=tbn:ANd9GcRUnVD-W2MFS28De18bKmKBvqLqoX6MkZbgN4DGjxJ_M0K6pDqmf3Yan7XV9Q&s
12,Qalawun Complex,4.7,749,Historical landmark,Historic Sites  Religious Sites,30.0493992,31.2609617,cairo,Historical landmark Historic Sites  Religious Sites,https://encrypted-tbn0.gstatic.com/images?q=tbn:ANd9GcQqTXwKl27jCItJErqzltdwA4Eus2wvE_ycNoxC5VVkPbpLbfsBtNNzqEQt4g&s
13,Al-Hakim Mosque,4.7,8214,Mosque,Religious Sites,30.0545457,31.2635091,cairo,Mosque Religious Sites,https://encrypted-tbn0.gstatic.com/images?q=tbn:ANd9GcQ5RJuMjooiCRr-urI_9-zu6TQ-bjfbUpTPYjzi2lKOPQz0HmI22T6Pf1UnLX0&s
14,Museum of Islamic Art in Cairo,4.6,4047,Museum,Art Museums History Museums,30.0447197,31.2527212,cairo,Museum Art Museums History Museums,https://encrypted-tbn0.gstatic.com/images?q=tbn:ANd9GcQVP8ukvRSmkIHCxTVHAZqhucJ__HlQR1L8Dm783Ib5JNRugs8aPnRtm29SXQ&s
15,Mosque of Muhammad Ali,4.7,4290,Mosque,Historic Sites  Religious Sites,30.0287015,31.2599106,cairo,Mosque Historic Sites  Religious Sites,https://encrypted-tbn0.gstatic.com/images?q=tbn:ANd9GcQyVsojF74gXVi8QnoM7dNsbaLzegyil0JLQq3rm9mrBtB4FacCJUkxNadkQA&s
16,Gayer-Anderson Museum,4.6,1261,Museum,Historic Sites Art Museums Archaeological,30.02833,31.250744,cairo,Museum Historic Sites Art Museums Archaeological,https://encrypted-tbn0.gstatic.com/images?q=tbn:ANd9GcT5R7qHShR36QRjotiWA6jChAmwhOOXnnjt1-VzC_qAtlyem7Kbw7T1m-RLYhY&s
17,Abdeen Palace Museum,4.6,"10,074",Museum,History Museums Historical place,30.0432148,31.247217,cairo,Museum History Museums Historical place,https://encrypted-tbn0.gstatic.com/images?q=tbn:ANd9GcRaVPR85O3GoXYsBoiUVs2iduN8HwUeTm5UWd5ZAgwpvyVb3gYroTkIIell3NE&s
18,The National Museum of Egyptian Civilization,4.7,14633,Museum,History Museums,30.00841,31.248246,cairo,Museum History Museums,https://encrypted-tbn0.gstatic.com/images?q=tbn:ANd9GcTcondkdJnugN8vgyu71BXwLFW4qHoNy9Ig7kMx3W1pT8n54J8pQGy78C_CXEo&s
19,The Hanging Church,4.6,5100,Church,Architectural Buildings  Religious Sites Christinaity,30.0052663,31.2301826,cairo,Church Architectural Buildings  Religious Sites Christinaity,https://encrypted-tbn0.gstatic.com/images?q=tbn:ANd9GcQr5qppL4qbNKuETjwgkOgWgayuWDwTiKq2sEScsggvq_vwxXO4LtGUeQZ7sA&s
20,Talaat Harb Square,4.5,14732,Historical landmark,Historic street,30.0475981,31.2384536,cairo,Historical landmark Historic street,https://encrypted-tbn0.gstatic.com/images?q=tbn:ANd9GcRITFrKS_nMUBIgsI0nuSkORDjFiOCXnu0qquUi8baTqe8oasZLN1GwSQzObA&s
21,Royal Chariots Museum,4.4,473,Museum,History Museums,30.0559054,31.2313202,cairo,Museum History Museums,https://encrypted-tbn0.gstatic.com/images?q=tbn:ANd9GcSwIywMoRUymhZkPVVxM246ZSV7rqLgs2bqMAIXJPAn3TlhomXVH66XnISmW8E&s
22,Bab al-Futuh,4.6,6390,Historical landmark,Historic Sites  Points of Interest & Landmarks  Historic Walking Areas  Castles,30.0553568,31.2634081,cairo,Historical landmark Historic Sites  Points of Interest & Landmarks  Historic Walking Areas  Castles,https://encrypted-tbn0.gstatic.com/images?q=tbn:ANd9GcS0yOEetGaMFl9HSdhAM8dXmIzzxQ8q1gEAC5Y7kcEDLRpR43RPFkC_mnWKZ0Y&s
23,Al-Hussein Mosque,4.6,25106,Mosque,Points of Interest & Landmarks  Religious Sites,30.0476733,31.2631929,cairo,Mosque Points of Interest & Landmarks  Religious Sites,https://encrypted-tbn0.gstatic.com/images?q=tbn:ANd9GcT0D-IHdgEmSI95803FPDWM94W6QmbvumCLJbUs3UNQloZ23MPMAe6oQkL9nm4&s
24,Bab Zuweila,4.6,839,Historical landmark,Historic Sites  Points of Interest & Landmarks  Castles,30.042704,31.257777,cairo,Historical landmark Historic Sites  Points of Interest & Landmarks  Castles,https://encrypted-tbn0.gstatic.com/images?q=tbn:ANd9GcSLkAqSUN94QdsOPnOiwJSi2OFJr0Xz_xR4KkFOUayQQQVOQUns2-v_syUHzmY&s
25,Lazoghly Square - Lazoghly Statue,4.4,183,Tourist attraction,Historic street,30.0391332,31.2403392,cairo,Tourist attraction Historic street,https://encrypted-tbn0.gstatic.com/images?q=tbn:ANd9GcSIeCfWLXrWBElUjMnttSJC1sP_rRCexvuUgrlGCf5xzuKpykE5ugVPvp94Yw&s
26,El Andalos Park,4.1,809,Park,garden,30.0442019,31.2274082,cairo,Park garden,https://encrypted-tbn0.gstatic.com/images?q=tbn:ANd9GcSZUaLFfchmXTR6hTClVDzvnU9KN5uYPQmk3TE4xFFx52gbWK6iHm8fEJnwcw&s
27,House of Suhaymi,4.6,1624,Historical landmark,Speciality Museums,30.0521013,31.2624902,cairo,Historical landmark Speciality Museums,https://encrypted-tbn0.gstatic.com/images?q=tbn:ANd9GcQXWr1h19QpYD0dwUn9oplEQmsiTVzc-Sq7WENbhX20fcvBEksD0SCBv3wNfQ&s
28,Al Horreya Garden,4.2,4046,Garden,Botanical,30.0414695,31.2257914,cairo,Garden Botanical,https://encrypted-tbn0.gstatic.com/images?q=tbn:ANd9GcQyYZ72BT3OKTmCDgbTe4bhL_-u7OfdU-aB6zK1b7rECB5NKoDRn4VWN_cSLF0&s
29,Townhouse Gallery,4.5,242,Art Gallery,,30.0490743,31.2380407,cairo,Art Gallery ,https://encrypted-tbn0.gstatic.com/images?q=tbn:ANd9GcTTVIUCo3dSsu6cFYIsgK2KBKrbBCQZv0xG6jQnxnnPQgNJbcVmoY5OCdudwA&s
30,Aqsunqur Mosque,4.7,435,Mosque,Religious Sites,30.0361111,31.2602778,cairo,Mosque Religious Sites,https://encrypted-tbn0.gstatic.com/images?q=tbn:ANd9GcSwGE4eInaUoRSqE13sXqaxyieHc2kERlQ_zO9qk9Ye_bu4DxA5iO8yLCUdWw&s
31,Saad Zaghloul Statue,4.4,138,Historical landmark,,30.0434046,31.2270813,cairo,Historical landmark ,https://encrypted-tbn0.gstatic.com/images?q=tbn:ANd9GcTZJ35l7NM1ht89BG3zZpZmB4DHuN99EzU315CxuyeJRQ97QhNsP7aKWALsfeM&s
32,St Sergius and St Bacchus Church,4.7,1163,Church,Churches & Cathedrals Christianity Reilgious Sites,30.006279,31.2306747,cairo,Church Churches & Cathedrals Christianity Reilgious Sites,https://encrypted-tbn0.gstatic.com/images?q=tbn:ANd9GcRXMrtXg052r2VNgYkm6lr6GXTo4i3TQyXEeqThGgS4QVQEd8ixd7ZK7gdpS48&s
33,Pyramid of Djoser,4.7,4940,Cultural landmark,Ancient Ruins  Points of Interest & Landmarks,29.8713227,31.216543,giza,Cultural landmark Ancient Ruins  Points of Interest & Landmarks,https://encrypted-tbn0.gstatic.com/images?q=tbn:ANd9GcScRCHvXrTIjp6nmrjBmA_2JYNddgl3nUDT3uZ-1mn4Yyo_BDWOlr2cxW_rGw&s
34,Saqqara Necropolis,4.8,998,Historical landmark,Historic Sites  Ancient Ruins,29.8684624,31.2168246,giza,Historical landmark Historic Sites  Ancient Ruins,https://encrypted-tbn0.gstatic.com/images?q=tbn:ANd9GcQtYtYm_q_ufr6jSxOclpj2R4RlU2-bLvzQ2O-HJFEWt92_QJn5dzbC16cZtg&s
35,El Obour Park,4.3,363,Park,,30.05623014,31.21761828,cairo,Park ,https://encrypted-tbn0.gstatic.com/images?q=tbn:ANd9GcR-yewhS8yto0xpX_u16fk3rhyCr-2JHw1l4PlOMCxVC3PLcrls4rJ-ApqNR0E&s
36,Aquarium Grotto Garden,3.8,3966,Park,,30.0563997,31.2190813,cairo,Park ,https://encrypted-tbn0.gstatic.com/images?q=tbn:ANd9GcQ8ho0662cCTphAbSe5z01suKD7CBT0Gju_A1tlLE-KlGumN-2LreeS-fyAtQ&s
37,Masjid Omar Makram,4.5,2213,Mosque,Religious Sites,30.0431994,31.2339485,cairo,Mosque Religious Sites,https://encrypted-tbn0.gstatic.com/images?q=tbn:ANd9GcQKcJTuU_8JGfbuifN-tUthOV6mvdk9S-ms6f-fEMeZKJjp44RIg9H9wsM96w&s
38,Pyramid of Khafre,4.7,974,Historical landmark,Historic Sites,29.9761308,31.1309319,giza,Historical landmark Historic Sites,https://encrypted-tbn0.gstatic.com/images?q=tbn:ANd9GcRORsax2PkIsq8yo7igzPkLPR3XLh4VbhsMiYOtHaVvqKiKfa9oh59mvCwAvg&s
39,Masjid Sultan Abo Elelaa,4.6,2002,Mosque,Religious Sites,30.05640297,31.22995602,cairo,Mosque Religious Sites,https://encrypted-tbn0.gstatic.com/images?q=tbn:ANd9GcRb_YOMFF8NVMUl22jBlMZTmRWWiMragl2kl4l84EdzViY6kqYzztkGfnml61M&s
40,Bent Pyramid,4.7,1178,Historical landmark,Ancient Ruins  Points of Interest & Landmarks  Architectural Buildings,29.7904488,31.2093244,giza,Historical landmark Ancient Ruins  Points of Interest & Landmarks  Architectural Buildings,https://encrypted-tbn0.gstatic.com/images?q=tbn:ANd9GcQXoHc2-iQ8jFj6n8TzPaGTjYNLSDo3MWVt2MmXvPGte3MqOMfAU-8tPyIyvA&s
41,The Child Museum,4.4,1152,Museum,Speciality Museums Childrens,30.1022381,31.336946,cairo,Museum Speciality Museums Childrens,https://encrypted-tbn0.gstatic.com/images?q=tbn:ANd9GcTtOxGRr8baFTwHSVHzf2juA2TrfUKLkwJwQyb5Cwr42GlVm7Ahn2s8AlJuIA&s
42,Red Pyramid,4.8,1477,Historical landmark,,29.8085947,31.2066131,giza,Historical landmark ,https://encrypted-tbn0.gstatic.com/images?q=tbn:ANd9GcS5YHxREn_UAy8ei3D74rBcl5AuSQhOx7AZu1xdAGfRDKwFFM7MidOmG5irKQ&s
43,Qasr El Nil Bridge,4.6,2024,Bridge,,30.0438506,31.2301913,cairo,Bridge ,https://encrypted-tbn0.gstatic.com/images?q=tbn:ANd9GcRq8hcJDMgotOxOhXtnN5x8_743FlnBsy4AQ-mW5mNj9YV7FS-JK3mPJl-v-Q&s
44,abdeen garden,4.4,1705,Park,,30.0438541,31.2458707,cairo,Park ,https://encrypted-tbn0.gstatic.com/images?q=tbn:ANd9GcQnQujVlCjURQXrn0WyeWvPQ7Sol6WDaj38MbX2ZRmYMbpeBdjOjSED99XMp0o&s
45,Khedive or Zamalek tree,4.8,25,Park,,30.045915,31.2242898,cairo,Park ,https://encrypted-tbn0.gstatic.com/images?q=tbn:ANd9GcQboWi5xiOZSIvPtGDdVsfOLUTWIBSaIq-jkn3sMofyIIpvx9G7rhkKdiP9dJk&s
46,Synagogue Ben Ezra,4.4,197,Synagogue,Historic Sites  Religious Sites,30.0057322,31.2310336,cairo,Synagogue Historic Sites  Religious Sites,https://encrypted-tbn0.gstatic.com/images?q=tbn:ANd9GcRR8QZXbmcJF4CCoJzx2bzerMM1Zh_9WzoaLD5JKQoGG2-P4KTvgdanXxcjJg&s
47,Islamic Ceramics Museum,3.9,64,Museum,Art Museums,30.0571741,31.2226481,cairo,Museum Art Museums,https://encrypted-tbn0.gstatic.com/images?q=tbn:ANd9GcQKPTlKZvkabdSfj3-wekxToS9F4_rtwAD6IGDu97hejj9ZUdjxa8pUk4mETOo&s
48,Gayer-Anderson Museum,4.6,"1,179",Museum,Historic Sites  Art Museums Archaeological,30.02833,31.250744,cairo,Museum Historic Sites  Art Museums Archaeological,https://encrypted-tbn0.gstatic.com/images?q=tbn:ANd9GcT5R7qHShR36QRjotiWA6jChAmwhOOXnnjt1-VzC_qAtlyem7Kbw7T1m-RLYhY&s
49,Mahmoud Mukhtar Museum,4.6,252,Museum,Speciality Museums Art,30.0406962,31.2228689,cairo,Museum Speciality Museums Art,https://encrypted-tbn0.gstatic.com/images?q=tbn:ANd9GcQoDKCTaQerlmdIN5d8IJmm_3e7PkVgTMGFU7YhsiB4PgEplLn92tbmisVO8Q&s
50,The Coptic Museum,4.5,867,Museum,Art Museums,30.0057645,31.2303972,cairo,Museum Art Museums,https://encrypted-tbn0.gstatic.com/images?q=tbn:ANd9GcRUnVD-W2MFS28De18bKmKBvqLqoX6MkZbgN4DGjxJ_M0K6pDqmf3Yan7XV9Q&s
51,National Military Museum Egypt,4.3,"4,517",Museum,Military Museums,30.030853,31.262557,cairo,Museum Military Museums,https://encrypted-tbn0.gstatic.com/images?q=tbn:ANd9GcShptnVRjQXMhRdiv2By4Fq-gMlmhfWDyd6h6oO3XusQu57ws2z_1EOu51s1eg&s
52,Gamal Abdel Nasser Museum,4.4,221,Museum,Historical place,30.0865432,31.3106985,cairo,Museum Historical place,https://encrypted-tbn0.gstatic.com/images?q=tbn:ANd9GcTctbNtG-2dymeBRvjR-cUp3pMEFTQKLe_IRe72_iVrEx91qnYH1V271SfYdQ&s
53,Egyptian Geology Museum,4.1,374,Museum,Science Museums,29.9963985,31.2288952,cairo,Museum Science Museums,https://encrypted-tbn0.gstatic.com/images?q=tbn:ANd9GcQLVOP-kC4v054d_LLJUtTiQr4qc9I7SW4ddiPpf--96kdrTsS1N_ISgbs6ug&s
54,The Child Museum,4.4,"1,122",Museum,Speciality Museums Childrens,30.1022381,31.336946,cairo,Museum Speciality Museums Childrens,https://encrypted-tbn0.gstatic.com/images?q=tbn:ANd9GcTtOxGRr8baFTwHSVHzf2juA2TrfUKLkwJwQyb5Cwr42GlVm7Ahn2s8AlJuIA&s
55,Abdeen Palace Museum,4.5,"9,657",Museum,History Museums Historical place,30.0432148,31.247217,cairo,Museum History Museums Historical place,https://encrypted-tbn0.gstatic.com/images?q=tbn:ANd9GcRaVPR85O3GoXYsBoiUVs2iduN8HwUeTm5UWd5ZAgwpvyVb3gYroTkIIell3NE&s
56,Taha Hussein Museum,4.3,239,Museum,History Museums,30.0050115,31.1849773,giza,Museum History Museums,https://encrypted-tbn0.gstatic.com/images?q=tbn:ANd9GcSbeBwRHjVAFtjgD25zpyU_IEvTG9bhwKzPb6b5aHJSdj7jP5FpzsBb07uT6no&s
57,Luxor Museum,4.7,"4,765",Museum,History Museums,25.7076132,32.6445491,luxor,Museum History Museums,https://encrypted-tbn0.gstatic.com/images?q=tbn:ANd9GcTUO1OI_K2TFNsvBD57Af-NsKAImRzpYstKKNVcr3356CQhKaYMJrDhY437unY&s
58,The Egyptian Museum,4.5,"6,617",Museum,History Museums Archaeological,30.0482928,31.23375359,cairo,Museum History Museums Archaeological,https://encrypted-tbn0.gstatic.com/images?q=tbn:ANd9GcSrFnN_Wcm6-IRjRgfQ5LhJnHo7d0-sEL5yOg28LmkdNc-fv3tjIlEwPqx_fg&s
59,Prince Mohamed Ali Palace (Al Manial Palace),4.6,"6,254",Palace,,30.0289507,31.230013,cairo,Palace ,https://encrypted-tbn0.gstatic.com/images?q=tbn:ANd9GcSdld7PpU5jLvdlAwk-rB8fm7eFZATyLImzfgLQ6TdB0ZLL4BrXWhAq1ZDOUQ&s
60,Museum Of Modern Egyptian Art,4.2,229,Museum,Art,30.043688,31.2246792,cairo,Museum Art,https://encrypted-tbn0.gstatic.com/images?q=tbn:ANd9GcR1aLHw5bg9gQSxXSeZQzAReYpLH-Ph0SbDtKaPG7MjG8chLb0OY_k8ni7uvg&s
61,Umm Kulthum Museum,4.3,705,Museum,Heritage Biographical,30.0074532,31.2252869,cairo,Museum Heritage Biographical,https://encrypted-tbn0.gstatic.com/images?q=tbn:ANd9GcR9jb835vaIqIhf9C5efbC4100UYwM2RMukayeHCh8zA_AWv0bATAx4xpxe_YQ&s
62,Grand Egyptian Museum,4.6,396,Museum,History Museums,29.9943681,31.1190957,giza,Museum History Museums,https://encrypted-tbn0.gstatic.com/images?q=tbn:ANd9GcRFWpnPNaNmoSf1-VuahHauhf7Pzn1WRd17vzQ-9TaUqaiZFanYGV4R88OWhr4&s
63,Egyptian Textiles Museum,4.6,128,Museum,Speciality Museums,30.0077247,31.2599886,cairo,Museum Speciality Museums,https://encrypted-tbn0.gstatic.com/images?q=tbn:ANd9GcSxYUvgqoQYKpSJsdcykAAaIuV7Jkheva9WvWBCz3ENkY6H3N9cNvjzCP_dTgo&s
64,Khalil Museum,4.6,441,Museum,Art Museums,30.0355965,31.2195869,cairo,Museum Art Museums,https://encrypted-tbn0.gstatic.com/images?q=tbn:ANd9GcT9N2bqKwVJfe6SWKop1NHBrw0GQFw3OEAuum7_-CD8taGNRBbxPF69NwTq5pU&s
65,Panorama October,4.4,"7,472",Museum,Speciality Museums War,30.0742728,31.3068068,cairo,Museum Speciality Museums War,https://encrypted-tbn0.gstatic.com/images?q=tbn:ANd9GcSSHWy7B4tMWE4VwpjFKQpXonwUUx7QuJhK2pRgZCc9Q8zXZTt8eWhphBIIUg&s
66,The Royal Mummies Hall,4.7,826,Museum,,30.0081493,31.2482604,cairo,Museum ,https://encrypted-tbn0.gstatic.com/images?q=tbn:ANd9GcSw--tV826syE3xyfG7eGAitd493oXr8JUJzS9mkX-oznG8mertVB4ROsld1g&s
67,Geographical Association of Egypt,4.4,75,Association or organization,,30.041119,31.2360473,cairo,Association or organization ,https://encrypted-tbn0.gstatic.com/images?q=tbn:ANd9GcQqKZldQfyLoxluMUtXS9iU8cGyJmOBJuKNHbS1L18ZfyNNkNwHJLA36-fwoQ&s
68,Mostafa Kamel Museum,4.5,135,Museum,Speciality Museums,30.029609,31.2572203,cairo,Museum Speciality Museums,https://encrypted-tbn0.gstatic.com/images?q=tbn:ANd9GcSwcFyhC_XkptM_EJa0pGhYIM8EHuS1D-f9TG_XDpOiT4kkoQKO_AHHLKjYV5g&s
69,Egyptian Air Force Museum,4.7,"1,045",Museum,Points of Interest & Landmarks,30.0966204,31.351621,cairo,Museum Points of Interest & Landmarks,https://encrypted-tbn0.gstatic.com/images?q=tbn:ANd9GcS4W4hKUShVV4iF5473m-TkGtkgwUh_oixXC3sDxw6Q7vd2Ovzz-I-fvSgSO9M&s
70,Egyptian National Library Museum,4.8,12,Museum,,30.0443325,31.2523265,cairo,Museum ,https://encrypted-tbn0.gstatic.com/images?q=tbn:ANd9GcQOKS6xDCJJEQKND3ZEU73ggfYqxHetwlkKuXRj1UeLR8JdaQDwqJkP3yz9VEg&s
71,Foustat Traditional Crafts Center,4.3,185,Museum,History Museums,30.0063684,31.2347231,cairo,Museum History Museums,https://encrypted-tbn0.gstatic.com/images?q=tbn:ANd9GcTCYiIzo6WAGV2f5XDivy9SrHPGOdpG37ula49fTRe9Drp1FaMpCdcATBftXOY&s
72,Pharaonic Papyrus Museum,4.4,517,Museum,Speciality & Gift Shops,29.9911787,31.1523771,cairo,Museum Speciality & Gift Shops,https://encrypted-tbn0.gstatic.com/images?q=tbn:ANd9GcQbQI4unGyHpz3ZB72y50doVACjnG6flJLlPP5dmREiyj4fxdQFJETbDD60eBA&s
73,Beshtak Palace,4.5,395,Museum,Historic Sites Palace,30.050508,31.2618941,cairo,Museum Historic Sites Palace,https://encrypted-tbn0.gstatic.com/images?q=tbn:ANd9GcSOO0sb0Nej2Os2Mc-jnO5XpKwOfMVlMvn_W6HEoGewjQ_trNfnhE9GRHmppQ&s
74,Beit Al-Razzaz,4.7,72,Historical landmark,mansion,30.03751994,31.25950158,cairo,Historical landmark mansion,https://encrypted-tbn0.gstatic.com/images?q=tbn:ANd9GcR9jqO1eG_5opc6396P9EzuWM4oF5TzH7YAwHYF16VUKhaB8P0M_tIejfGWUQ&s
75,Alexandria National Museum,4.4,"2,105",Museum,History Museums,31.2007415,29.9131977,Alexandria,Museum History Museums,https://encrypted-tbn0.gstatic.com/images?q=tbn:ANd9GcQUywV-aQClb6nclEq46xE0xoovMO7bC5AnlT786iuq2ySjkRV9q7z2CUX_FQY&s
76,Royal Jewellery Museum,4.6,"6,001",Museum,History Museums,31.2406096,29.9632848,Alexandria,Museum History Museums,https://encrypted-tbn0.gstatic.com/images?q=tbn:ANd9GcQdyFcIg1Kq61yj5irBwiN3p9F1EEKBy8HLOmBAsHuUnPFWWtSgpTsuCL_bDQ&s
77,National Police Museum,3.9,95,Museum,History Museums,30.03079183,31.25991218,cairo,Museum History Museums,https://encrypted-tbn0.gstatic.com/images?q=tbn:ANd9GcTyGZC_Kir9pddzR1zXA7TBV2kOMk6_PfY4i1V0MsFHbOa3hnQMn-jB1g-WDrE&s
78,"Museum of Illusions, Cairo",4.4,"1,168",Museum,Speciality Museums  Art Museums,30.0775,30.9513779,cairo,Museum Speciality Museums  Art Museums,https://encrypted-tbn0.gstatic.com/images?q=tbn:ANd9GcRoG9T6aSKeMUfpuSeMZtqEfYLh6RilLJB3OVrBx7kjNZrMEDcRqswm32pbyw&s
79,Ramses Wissa Wassef Art Center,4.6,117,Art Gallery,,29.9687532,31.1759566,giza,Art Gallery ,https://encrypted-tbn0.gstatic.com/images?q=tbn:ANd9GcS9ApC0yw3VNBUbPuSvvslD_2Ko9SsK-ONLjxB1txQOrQWpf-qj9MNm5GYzsls&s
80,Karmet Ibn Hanie Cultural Center Ahmed Shawky Museum,4.3,158,Cultural center,,30.0212625,31.2174341,cairo,Cultural center ,https://encrypted-tbn0.gstatic.com/images?q=tbn:ANd9GcTqtfNMR5kFi26m8A08OsrGtVEw5HLn2uvLqjVhpBsBd9F5G9cqw2A9h3D-tg&s
81,Nation's House Museum,4.3,219,Museum,History Museums,30.03801203,31.23745743,cairo,Museum History Museums,https://encrypted-tbn0.gstatic.com/images?q=tbn:ANd9GcS2QIr-Pj0ZwPqXA6NGiDa7R_GRgkYMTyhdzWfyszzOCCLWKVRzt2J1oxVytQ&s
82,Rokn Farouk Museum,4.3,"1,238",Museum,Heritage,29.8470018,31.2947169,cairo,Museum Heritage,https://encrypted-tbn0.gstatic.com/images?q=tbn:ANd9GcRPabPmcq6Vqv2zDfjTNYg9pptC2crbpASeJzQWD3k8v5EOzxfZkPKuDAhdftk&s
83,Islamic Ceramics Museum,3.9,63,Museum,Art Museums,30.0571741,31.2226481,cairo,Museum Art Museums,https://encrypted-tbn0.gstatic.com/images?q=tbn:ANd9GcQKPTlKZvkabdSfj3-wekxToS9F4_rtwAD6IGDu97hejj9ZUdjxa8pUk4mETOo&s
84,Al-Azhar Park,4.5,30165,Park,,30.040758,31.2647327,cairo,Park ,https://encrypted-tbn0.gstatic.com/images?q=tbn:ANd9GcQt0yDPWjPuekdb7cbZcnqRoRwxxqBnTd9MQH_8Ow0I2n7fK8vhpnsSWIWY-Q&s
85,Al Horreya Garden,4.2,4045,Garden,Botanical,30.0414695,31.2257914,cairo,Garden Botanical,https://encrypted-tbn0.gstatic.com/images?q=tbn:ANd9GcQB1loPsWDXhXQIRlBIpWOjV5G9PQLIXxB34m0XfD90S8NqfesyTCS1wM_tJQ&s
86,Manial Garden,4.2,310,Park,garden,30.02893758,31.2300619,cairo,Park garden,https://encrypted-tbn0.gstatic.com/images?q=tbn:ANd9GcQI-8IJmzeTM4TBolM4lqoLF32D4PD_eZjF2UAkGaLYBJhywWKrtpKd1OV6-g&s
87,Umm Kulthum Park,4.1,1505,Park,,30.0310804,31.2256242,cairo,Park ,https://encrypted-tbn0.gstatic.com/images?q=tbn:ANd9GcSOy0Alkl_Qrol4pH_7O8CKpTAwR7-yqteheD8hgALH9msag5fz4wsZdLUITA&s
88,El Obour Park,4.3,363,Park,,30.2283408,31.4798948,cairo,Park ,https://encrypted-tbn0.gstatic.com/images?q=tbn:ANd9GcR-yewhS8yto0xpX_u16fk3rhyCr-2JHw1l4PlOMCxVC3PLcrls4rJ-ApqNR0E&s
89,Aquarium Grotto Garden,3.8,3965,Park,,30.0563997,31.2190813,cairo,Park ,https://encrypted-tbn0.gstatic.com/images?q=tbn:ANd9GcQ8ho0662cCTphAbSe5z01suKD7CBT0Gju_A1tlLE-KlGumN-2LreeS-fyAtQ&s
90,Gezira Island,4.1,40,Park,,30.045137,31.228111,cairo,Park ,https://encrypted-tbn0.gstatic.com/images?q=tbn:ANd9GcSEhdNKWqcuzxJnZ4DyorydcmXYZ66LTxuVMUhFHLiIZbSvb9PBwn0iePnX3g&s
91,Fustat Park,3.8,5598,Park,,30,31.233333,cairo,Park ,https://encrypted-tbn0.gstatic.com/images?q=tbn:ANd9GcQ3uBb5w5pJ1qsRFXT573CUclIxHFPh2IX7S0IgZwQSRW-Jd9gXrs3CKCUOhw8&s
92,Dar-Uloom Park,3.9,940,Park,,30.03436023,31.2359118,cairo,Park ,https://encrypted-tbn0.gstatic.com/images?q=tbn:ANd9GcQH0fUB065KfEm9Jb77YzarS2QmB6VXyy1qimnvUNpXrSfbIUo8d6G55NzWVpg&s
93,Play Time Park,4.3,586,Park,,30.0698427,31.2270271,cairo,Park ,https://encrypted-tbn0.gstatic.com/images?q=tbn:ANd9GcTTYnzDCgIR4RhOYIh1CGh6ETJ7VCpkZUXFD9Z6UKNe5YK-f6Wm6EyRbNnq_Q&s
94,The International Park,4.1,22154,Park,city,30.0495466,31.3364926,cairo,Park city,https://encrypted-tbn0.gstatic.com/images?q=tbn:ANd9GcSCRNoEtEHROM_o8IDjHV_blZVSqzNyQCGJNfjlRbEoF23KZ8uoM02Ep0uDBA&s
95,Ebn Sinder Park,3.7,2100,Park,,30.0896519,31.30278,cairo,Park ,https://encrypted-tbn0.gstatic.com/images?q=tbn:ANd9GcTQT1VNV9wRSwXnLb5_Cvx3NhwZtK_SR3T2jRuC9C26gx9mIi0npp-2mmrAf4U&s
96,Arab Mohammadi Park,3.7,435,Park,,30.07650983,31.27951358,cairo,Park ,https://encrypted-tbn0.gstatic.com/images?q=tbn:ANd9GcTLLAwqoZcwpJWo4YT9gxmUwP3Vaqyz84EaxQH0k-E1fIiV4g2Q1xev2xSCOqI&s
97,The water Park Faculty of Agriculture,4.3,158,Park,,30.0192629,31.2108707,cairo,Park ,https://encrypted-tbn0.gstatic.com/images?q=tbn:ANd9GcSL_GLjU6rDqntMm_Q1dly-RwjsNQolH63UrY5xllod_vfxFU-pMBtrr48NIYo&s
98,Al-Azhar Park Fountain,4.5,22,Garden,park,30.040758,31.2647327,cairo,Garden park,https://encrypted-tbn0.gstatic.com/images?q=tbn:ANd9GcT5FxB4wIc-do5vPVxBTpQ8XfsCzQEaFl0gztDJPOEBLZBZIi6Z_HbWIY6Gnw&s
99,Abdeen Park,4.4,1705,Park,,30.0438541,31.2458707,cairo,Park ,https://encrypted-tbn0.gstatic.com/images?q=tbn:ANd9GcS2wAtl8hAeWv-JBxg5qxGbzGBVJypfetfMZ5La8maw_aV-5uLzYTx0a1ndeA&s
100,Dokki Public Nile View,4.5,13,Park,,30.0394511,31.2025336,cairo,Park ,https://encrypted-tbn0.gstatic.com/images?q=tbn:ANd9GcSDztJvn3GKJ_REPBtY41y_IvsW01GeX8_aK65S5KvYeR3U4ECrpfDSCVVV0yc&s
101,Mamsha Ahl Misr,4.5,3970,Tourist attraction,,30.0607606,31.227474,cairo,Tourist attraction ,https://encrypted-tbn0.gstatic.com/images?q=tbn:ANd9GcTY63RSE535LKtWrUSWbzuVXCqxu07gXGKa7xOnNS528z1C1jPf8sA6cE4nLg&s
102,Golf Park And Dog Park,4.3,595,Park,National Dog,30.0799571,31.330797,cairo,Park National Dog,https://encrypted-tbn0.gstatic.com/images?q=tbn:ANd9GcRMjZxSR2MgE-1Q6WX2UdbYlSJXA8aDsUpVAuhmQ7Kf_VTgv6mZAvBbZUhXDQ&s
103,Merryland Park,4.2,16200,Park,,30.0979257,31.3189812,cairo,Park ,https://encrypted-tbn0.gstatic.com/images?q=tbn:ANd9GcQ7ivgJBQQ1TZ7dl4pfaKOe_jCS5kvXPa50FNgjcuo0Ma5ZVfqs2KsjucsHKw&s
104,The Chinese Garden,4.3,122,Garden,,30.0652368,31.31138218,cairo,Garden ,https://encrypted-tbn0.gstatic.com/images?q=tbn:ANd9GcTcXlV6eW5U7O0KqtPp1BhJzgvlnK1bdgEzwjgBg8t95RBVmjDhpsTPfIMlTUQ&s
105,Child's Park,4.2,13963,Park,,30.06196455,31.34709932,cairo,Park ,https://encrypted-tbn0.gstatic.com/images?q=tbn:ANd9GcSHgGR930t4pILkAobGJHtP4U-kcLiqrAAVqUeAYKiRt3xJNZqU_v09Ni0AAMk&s
106,Nature Stillness Park,3.7,75,Park,,30.11385837,31.33632338,cairo,Park ,https://encrypted-tbn0.gstatic.com/images?q=tbn:ANd9GcSsdLB2h0hwc29ac7ttjM1uC7iHH1eDF6CkDzazt4jMvJSMrQ2KUVQCsz0ytco&s
107,Mokkatam Dog Park,4,473,Park,dog,30.01671,31.2850761,cairo,Park dog,https://encrypted-tbn0.gstatic.com/images?q=tbn:ANd9GcQKn_IlIsgls1E9T326Sa8Hskmdt6QcetnFnmEThpBGAZDvVuMToixgdDB7VrQ&s
108,Azbakeya Garden,3.8,5403,Garden,,30.0517721,31.2477926,cairo,Garden ,https://encrypted-tbn0.gstatic.com/images?q=tbn:ANd9GcRIpJeP3zSlqNEYuDESfgvkHxt76AL9LE2cgfPZUqoahTEbcWZCHHoxNGnPGto&s
109,Orman Garden,4.2,12526,Garden,Botanical,30.0290398,31.2129736,cairo,Garden Botanical,https://encrypted-tbn0.gstatic.com/images?q=tbn:ANd9GcROvkvQh3SGwAWwViWIlvx0FPJ97PZ4-oiCXOFu8Aj6V3ccYr0Nwcn8KTYy8Vg&s
110,My Park,3.6,20,Park,,29.96189869,31.27079159,cairo,Park ,https://encrypted-tbn0.gstatic.com/images?q=tbn:ANd9GcQWTUfoB5btW4xQuSrheOgU_g0BRS0QLekaja6ciS7c851AP_xhEkoSXIlft6w&s
111,Rawdet ElNil Garden,4.1,195,Garden,community,30.076214,31.228531,cairo,Garden community,https://encrypted-tbn0.gstatic.com/images?q=tbn:ANd9GcTVY1uGLTP7BFobB8qb569zd56akefl8rB1DoDSAbm1RmB3xUFHn2-hZFbKBCY&s
112,FAMILY PARK,4.4,19509,Park,,30.08108309,31.50176534,cairo,Park ,https://encrypted-tbn0.gstatic.com/images?q=tbn:ANd9GcTHNIEtFPP8-G4V635Sup1fpk0W2AKIm3xsCJp50QpzFE3h0G_1-ahZE4i08Q&s
113,Fostat city,4.4,57,Park,city,30,31.233333,cairo,Park city,https://encrypted-tbn0.gstatic.com/images?q=tbn:ANd9GcQv4j-RBJ1o6dGmx4tQIQg9wr0VRBsqURXm0fGTn56sxlZQeuzXDSdc4AwCcc4&s
114,Al Zohriya Garden,4.2,27,Garden,Botanical,30.0458237,31.2256836,cairo,Garden Botanical,https://encrypted-tbn0.gstatic.com/images?q=tbn:ANd9GcT71Cp_kQOd0qR4tsfhlpzc3TIYv7lpaADFxnmimwVNg_BWE_eKA5X5eYxcQA&s
115,Kids Park,4.3,47,Park,,29.9661615,31.24142178,cairo,Park ,https://encrypted-tbn0.gstatic.com/images?q=tbn:ANd9GcQ6aGINGSVDi64UQ36sGl1rOTeUGNXm-meIpL4E-wp7eihigtyd38YUlzlmX6c&s
116,Lotus Park,4.1,916,Park,,30.04073736,31.33516638,cairo,Park ,https://encrypted-tbn0.gstatic.com/images?q=tbn:ANd9GcT___cy8I3BlfcNvxS1u490XREqxEEWQxbuiUy9qwUPdqe2HJeJHFGbLmWLFv8&s
117,Paradise Park,4.2,692,Park,,30.06411567,31.33006024,cairo,Park ,https://encrypted-tbn0.gstatic.com/images?q=tbn:ANd9GcQ_gK9dGDrGDeXfvaFT_KqXZV2vCJDT1e9OoH6bhe3qu69TN5xsJUrz8qx_lA&s
118,Cairo Tourist Walk,4.9,15,Hiking area,,30.0444196,31.2357116,cairo,Hiking area ,https://encrypted-tbn0.gstatic.com/images?q=tbn:ANd9GcSkRYf-mNtaSvBg2XsZppUNSeUaDn8W3MDOfe-bb9sTv-AG69o_vrRiB1kZE1I&s
119,The Maidan Gardens,4.5,505,Park,Garden,29.9565839,31.2671197,cairo,Park Garden,https://encrypted-tbn0.gstatic.com/images?q=tbn:ANd9GcQheW9Fl6gUuL0yBT6-Z2HL8la1vwrcDFfho92X_JSbXAKdTDiV3N8nf7gf0Q&s
120,Bella garden,4.3,330,Garden,Park,30.11661196,31.35130804,cairo,Garden Park,https://encrypted-tbn0.gstatic.com/images?q=tbn:ANd9GcTDZHL45cscoRtdf0ZJN7dOSsY8quSTMRyocpQMZ5p8m7A--drUhl9TcMUTvw&s
121,Hadiqet Nil Elmaadi,3.7,403,Park,,29.9299926,31.2808328,cairo,Park ,https://encrypted-tbn0.gstatic.com/images?q=tbn:ANd9GcQtvNLKYubIKVKNMpl3c7WBjOQT4Le-4RHm-hq-bYgY4aFWI2xR1uQ9je1K7Q&s
122,Amusement Park maadi island,3.9,54,Park,,29.96534782,31.23809518,cairo,Park ,https://encrypted-tbn0.gstatic.com/images?q=tbn:ANd9GcSTQKmI1AXNWrx3l6WgOYJAyBHrhEp8pq1Szxyl6Ks93-KkYHF416LldGunQ9Q&s
123,Cairo Park,3.8,57,Park,,30.1024971,31.5630709,cairo,Park ,https://encrypted-tbn0.gstatic.com/images?q=tbn:ANd9GcT3sCKOYBXwQE5i2aW0XcwY4EzoyZ-Fo48JuEwlr0MIk9uBssMl2e4bLyFBPIo&s
124,Naguib Mahfouz Park,4,458,Park,,30.04979703,31.34292168,cairo,Park ,https://encrypted-tbn0.gstatic.com/images?q=tbn:ANd9GcS0hhze8eeeBcaFEsG9hxkRvW9QazGHO0xd30X-6jLw3Po-GlXJg4lwm84pbD4&s
125,Cairo Land,4,170,Park,water,30.0444908,31.2427005,cairo,Park water,https://encrypted-tbn0.gstatic.com/images?q=tbn:ANd9GcQohEmqtRGB_XsmoKTCe4CmUvXgPzhl8YCSORwyY1pd4Sw-K0wuwm0RuhoUxQ&s
126,Jewel Aqua park,4,1449,Park,water,30.047512,31.4012947,cairo,Park water,https://encrypted-tbn0.gstatic.com/images?q=tbn:ANd9GcQ3nGYqeLiG_6CUis26PAr_txKxjbsYHblNBGa6n27Yaa4_wPJoY7ZUJa9PakM&s
127,Bikes Park Mostqbal City,4.1,141,Park,,30.1704024,31.5552562,cairo,Park ,https://encrypted-tbn0.gstatic.com/images?q=tbn:ANd9GcRFLs4vkuXh42e4fC0fpHLKAV9zXVvApVHqEubmh2xp8fWsKBQzkdJLau0RgA&s
128,KidZania Cairo,4.6,7712,Tourist attraction,Theme park Amusment,30.0312764,31.4055411,cairo,Tourist attraction Theme park Amusment,https://encrypted-tbn0.gstatic.com/images?q=tbn:ANd9GcSAiATgbQQOf56qR5RDWt_I5xjxYSzzdhekl3FgtvOeBc64bM76B0s8y3_Txg&s
129,Dream Park,4.3,22203,Park,Amusment Park theme,29.96467621,31.05773166,giza,Park Amusment Park theme,https://encrypted-tbn0.gstatic.com/images?q=tbn:ANd9GcQ2c1m1jpz2qcKxoJ8mLJTfiq9U-haqQsuyadJfG85_OaxEZamR9J7uYYTrqw&s
130,Helmya Garden,3.9,714,Garden,Botanical,30.1088024,31.3265947,cairo,Garden Botanical,https://encrypted-tbn0.gstatic.com/images?q=tbn:ANd9GcRbmBCBW-1ND-nCSCdw0nWWY9b3H52zm0aQsxa3HlUr82c_i2mGRdscvg0WJw&s
131,Al Moez Ldin Allah Al Fatmi,4.7,1105,Notable street,,30.05094301,31.26157701,cairo,Notable street ,https://encrypted-tbn0.gstatic.com/images?q=tbn:ANd9GcTCgFODt6CrdB_ydrFlOlhCcw6mqisGgTr7yyrHj5R2Bu-N48QlRyHrL-ow4A&s
132,Mosque Sultan Al-Zahir Barquq,4.9,8,Mosque,Religious Sites,30.05010418,31.26121552,cairo,Mosque Religious Sites,https://encrypted-tbn0.gstatic.com/images?q=tbn:ANd9GcRJ71ErBw0jLFPMyN4cpIDrcgUEcs4GVBsG_icizeOTEwJsnoaSBaPuFypA4j0&s
133,Al-Aqmar Mosque,4.7,1254,Mosque,Religious Sites,30.05159771,31.26203646,cairo,Mosque Religious Sites,https://encrypted-tbn0.gstatic.com/images?q=tbn:ANd9GcSit5uFz9ocJSYctua6_X3IUshAWjWz8FAJ5kxbKiW1_p1LAtBnc7ZHH7jw5w&s
134,Qalawun Complex,4.7,768,Historical landmark,,30.04941495,31.26100388,cairo,Historical landmark ,https://encrypted-tbn0.gstatic.com/images?q=tbn:ANd9GcQqTXwKl27jCItJErqzltdwA4Eus2wvE_ycNoxC5VVkPbpLbfsBtNNzqEQt4g&s
135,New Khan El Khalili Center,4.2,151,Shopping mall,,30.04869682,31.26127981,cairo,Shopping mall ,https://encrypted-tbn0.gstatic.com/images?q=tbn:ANd9GcSvy057uhivz_SuJ_fZl0nX5PhGL5nw-mtfKku1cuHVWxGoc4ujCtoyhzI4qkA&s
136,Khan El Khalili Restaurant et Naguib Mahfouz Coffee Shop,4.3,"3,497",Cafe,,30.04807441,31.26161618,cairo,Cafe ,https://encrypted-tbn0.gstatic.com/images?q=tbn:ANd9GcR14oaIlm5dE42E31Fp4tpJ8IijHR7z8r6qu7uVReJFV9Jz5Wgnuss3BH56iFA&s
137,El Fishawy Cafe,3.9,"3,062",Cafe,,30.04753185,31.26235631,cairo,Cafe ,https://encrypted-tbn0.gstatic.com/images?q=tbn:ANd9GcRawacb2Kz1WnisbBaLr2QJJF_BkAsgNUnyWMPbBYkEBYzenP3TCmCk4RqfiQ&s
138,Al-Hussain Mosque,4.6,"25,191",Mosque,Religious Sites,30.04776633,31.26337538,cairo,Mosque Religious Sites,https://encrypted-tbn0.gstatic.com/images?q=tbn:ANd9GcT0D-IHdgEmSI95803FPDWM94W6QmbvumCLJbUs3UNQloZ23MPMAe6oQkL9nm4&s
139,Mosque-Madrasa of Sultan Hassan,4.8,3397,Mosque,Religious Sites,30.0322791,31.2561704,cairo,Mosque Religious Sites,https://encrypted-tbn0.gstatic.com/images?q=tbn:ANd9GcS465F4hBNy0RTIKnHz4p4Y0vkwShRLP4EpGni3jbbD3XhqwvI0JZB9l7rjPg&s
140,Al-Rifa'i Mosque,4.8,2374,Mosque,Religious Sites,30.0327091,31.2570029,cairo,Mosque Religious Sites,https://encrypted-tbn0.gstatic.com/images?q=tbn:ANd9GcRFonOASsS8vxjrHydF7q-RtkrN5KwwSFAulLoLjj5K1rHKELFggiOaXAB3F_8&s
141,Mosque of Ibn Tulun,4.7,3477,Mosque,Religious Sites,30.028691,31.2493941,cairo,Mosque Religious Sites,https://encrypted-tbn0.gstatic.com/images?q=tbn:ANd9GcTTqj06fwveQgZkdCnoYn_8Gnkli7sDp6tTNK4U22O1duV3YByFeMD6qktULuo&s
142,Qalawun Complex,4.7,768,Historical landmark,,30.0493992,31.2609617,cairo,Historical landmark ,https://encrypted-tbn0.gstatic.com/images?q=tbn:ANd9GcQqTXwKl27jCItJErqzltdwA4Eus2wvE_ycNoxC5VVkPbpLbfsBtNNzqEQt4g&s
143,Sultan al-Mu'ayyad Mosque,4.7,969,Mosque,Religious Sites,30.0433361,31.2574361,cairo,Mosque Religious Sites,https://encrypted-tbn0.gstatic.com/images?q=tbn:ANd9GcTdC7rbJfOwOr9lg0D0B5h3IQ4RcF3kOkqDro4Iq8ECnuzhPVmO1jy3cWe-C9g&s
144,Aqsunqur Mosque,4.7,440,Mosque,Religious Sites,30.0361111,31.2602778,cairo,Mosque Religious Sites,https://encrypted-tbn0.gstatic.com/images?q=tbn:ANd9GcSwGE4eInaUoRSqE13sXqaxyieHc2kERlQ_zO9qk9Ye_bu4DxA5iO8yLCUdWw&s
145,Al-Aqmar Mosque,4.7,1254,Mosque,Religious Sites,30.0515694,31.2619356,cairo,Mosque Religious Sites,https://encrypted-tbn0.gstatic.com/images?q=tbn:ANd9GcSit5uFz9ocJSYctua6_X3IUshAWjWz8FAJ5kxbKiW1_p1LAtBnc7ZHH7jw5w&s
146,Masjid Sultan Abo Elelaa,4.6,2003,Mosque,Religious Sites,30.0564491,31.2299181,cairo,Mosque Religious Sites,https://encrypted-tbn0.gstatic.com/images?q=tbn:ANd9GcRb_YOMFF8NVMUl22jBlMZTmRWWiMragl2kl4l84EdzViY6kqYzztkGfnml61M&s
147,Mosque of Muhammad Ali,4.7,4316,Mosque,Religious Sites,30.0287015,31.2599106,cairo,Mosque Religious Sites,https://encrypted-tbn0.gstatic.com/images?q=tbn:ANd9GcQyVsojF74gXVi8QnoM7dNsbaLzegyil0JLQq3rm9mrBtB4FacCJUkxNadkQA&s
148,Masjid Al-Mahmodyah,4.7,78,Mosque,Religious Sites,30.0316082,31.2577427,cairo,Mosque Religious Sites,https://encrypted-tbn0.gstatic.com/images?q=tbn:ANd9GcRrHYfxUKOzhOULVvRDb1gKVZqtbtiJKhg0nbiHy7m3mMVId8u0jG2UVwR4Rg&s
149,Al-Hussain Mosque in Cairo,4.6,25191,Mosque,Religious Sites,30.0476733,31.2631929,cairo,Mosque Religious Sites,https://encrypted-tbn0.gstatic.com/images?q=tbn:ANd9GcT0D-IHdgEmSI95803FPDWM94W6QmbvumCLJbUs3UNQloZ23MPMAe6oQkL9nm4&s
150,Al-Hakim Mosque,4.7,8230,Mosque,Religious Sites,30.0545457,31.2635091,cairo,Mosque Religious Sites,https://encrypted-tbn0.gstatic.com/images?q=tbn:ANd9GcRxjzjqJ5_Jjrcdi27x2gPrzCNjEi0DvP6NfGo6XknPewy9NIKtaqU9KgS53Q&s
151,Mosque of Qanibay al-Rammah,4.6,75,Mosque,Religious Sites,30.0322704,31.2579496,cairo,Mosque Religious Sites,https://encrypted-tbn0.gstatic.com/images?q=tbn:ANd9GcQpAopKnFvXJOogBltbVAYynnqcf7hnU4zQ0rrGEQ1M1Lnxvi14KttO4kVujQ&s
152,Mosque of al-Salih Tala'i,4.6,164,Mosque,Religious Sites,30.0423523,31.2581069,cairo,Mosque Religious Sites,https://encrypted-tbn0.gstatic.com/images?q=tbn:ANd9GcTnaVh6i6PwPYa63CQDtJbxc1xOUetOQUbJSakkd8YsLtb4LIfgndQPQ9aqTI0&s
153,Masjid Elmoaued Sheikh,4.7,132,Historical landmark,Religious Sites Mosque,30.0429527,31.257796,cairo,Historical landmark Religious Sites Mosque,https://encrypted-tbn0.gstatic.com/images?q=tbn:ANd9GcQRLTe6CSyhZYTFYPjjLX6T1FMIXwscCjhYBjLDGN0NKUZkqdPS67a-CRyYvw&s
154,Soliman Agha El Selehdar Mosque,4.6,251,Mosque,Religious Sites,30.0554367,31.2516499,cairo,Mosque Religious Sites,https://encrypted-tbn0.gstatic.com/images?q=tbn:ANd9GcQxl2ZYYfB2zkkTDKtMqx86GUJxsHNE4Qn7rWOtOMwK1dWQqj7zTZkDt5IkPQ&s
156,Al Zahir Baybars Mosque,4.5,3181,Mosque,Religious Sites,30.0626343,31.263026,cairo,Mosque Religious Sites,https://encrypted-tbn0.gstatic.com/images?q=tbn:ANd9GcQIQVDEwKMeu5LSq7ed-Dc8de7FQ3p5XL0zJLCVqzO1lmLA3PgeA2Yx9X2FYA&s
157,Al-Nour Mosque,4.7,7400,Mosque,Religious Sites,30.0752778,31.2830556,cairo,Mosque Religious Sites,https://encrypted-tbn0.gstatic.com/images?q=tbn:ANd9GcS1wk0XVOCVx3LkX-z81ZEMbnOW6KiC7U3TsYnL_ue3Biuw2YikNVci-hioDeU&s
158,Abu Dahab Mosque,4.7,90,Mosque,Religious Sites,30.0459738,31.2619253,cairo,Mosque Religious Sites,https://encrypted-tbn0.gstatic.com/images?q=tbn:ANd9GcTAEq7BT5n3cprlx-cjaZ-7z5me_QW8y4CwLiOjr__70YZAcUZBDfLYWCSAOH4&s
159,Abo Heriba mosque,4.7,119,Mosque,Religious Sites,30.0414302,31.2596207,cairo,Mosque Religious Sites,https://encrypted-tbn0.gstatic.com/images?q=tbn:ANd9GcRXmHiZeGJkCtJjNNm4CobEk6Sc4vufbrGqk69NoYKGS6dVKQFLOlj4IWJJjcc&s
160,Amir Khayrbak Funerary Complex,4.7,73,Mosque,Religious Sites,30.0357198,31.2601594,cairo,Mosque Religious Sites,https://encrypted-tbn0.gstatic.com/images?q=tbn:ANd9GcTqooMmLzbXt0iWkDSmKkje6LHAEpVJW5TMGDxYb5653-DphFN0FI8sLU40jNA&s
161,Ad-Demerdash Mosque,4.5,13,Mosque,Religious Sites,30.0751842,31.2772932,cairo,Mosque Religious Sites,https://encrypted-tbn0.gstatic.com/images?q=tbn:ANd9GcRHqBDxAX-RvfcfQe7chhwdw1LEvsvY7ayYzyPqe5zCZ0Az9sMFhVKK4wHfCA&s
162,Prince Qayson mosque,4.7,570,Mosque,Religious Sites,30.0380824,31.2546908,cairo,Mosque Religious Sites,https://encrypted-tbn0.gstatic.com/images?q=tbn:ANd9GcTHpIL81pBheoGmbXY0PpD7U7aAhUK-RxyXieMuj2dI5qYk3JjjPN-s78fZ7A&s
163,Sulayman Pasha Mosque,4.8,40,Mosque,Religious Sites,30.0310511,31.2645331,cairo,Mosque Religious Sites,https://encrypted-tbn0.gstatic.com/images?q=tbn:ANd9GcSCinVTEV6Bsls14alQPgSLivNW4yp-_SYv3lnuu5NfMbHVTi_qWUvRAUUrTg&s
164,Amr ibn Al-A'as Mosque,4.7,9029,Mosque,Religious Sites,30.0100473,31.2331319,cairo,Mosque Religious Sites,https://encrypted-tbn0.gstatic.com/images?q=tbn:ANd9GcQf2S_Ts04CTUIJxHAIjGN6m7vvNbB_IWxf39mb2e2lcL1d7P6RwPsWAJfd6g&s
165,Sinan Pasha Mosque,4.7,156,Mosque,Religious Sites,30.0622167,31.2295833,cairo,Mosque Religious Sites,https://encrypted-tbn0.gstatic.com/images?q=tbn:ANd9GcRiUscqdU1frvoOzEPpGjl9ALsGJtzmg_3F8wFtPQ0qagiJehZpIDyTemqWcFI&s
166,Al-Fath MosqueÂ ,4.5,581,Mosque,Religious Sites,30.0978226,31.2757152,cairo,Mosque Religious Sites,https://encrypted-tbn0.gstatic.com/images?q=tbn:ANd9GcQN911F7DO6T37v4gc0biPRdtbrJC5_IVHVlXeNPRRYKrJ6BqXCS7tELCaCWw&s
167,Mosque of Gamal El-Din El-Ustadar,4.9,13,Mosque,Religious Sites,30.0346652,31.2543912,cairo,Mosque Religious Sites,https://encrypted-tbn0.gstatic.com/images?q=tbn:ANd9GcRMeCDwHJkHKj2dv0HPpiA6lEgKIDG29RRsKIgngLFrIvAzUjtX4cy1B3EY8Mk&s
168,Masged and Madraset Soltan Hassn,4.7,6913,Historical landmark,Religious Sites Mosque,30.0328679,31.2562843,cairo,Historical landmark Religious Sites Mosque,https://encrypted-tbn0.gstatic.com/images?q=tbn:ANd9GcTkDToNzGcWl04dhGXvEJximn9dfmkdxtyJ8Mqr_Kvy-1VCdSyhZhFYmKu0nmM&s
169,Wekalet El Ghoury,4.6,1360,Tourist attraction,Performing arts theater,30.0460471,31.2602093,cairo,Tourist attraction Performing arts theater,https://encrypted-tbn0.gstatic.com/images?q=tbn:ANd9GcR8CjQwDbkX0nVq2brYvLEwY3A8HtkbPLzRJlrnQikrjTjAAz2U0m_KXeSnCg&s
170,Mohamed Ali Mosque,4.7,1647,Mosque,Religious Sites,30.0444196,31.2357116,cairo,Mosque Religious Sites,https://encrypted-tbn0.gstatic.com/images?q=tbn:ANd9GcQyVsojF74gXVi8QnoM7dNsbaLzegyil0JLQq3rm9mrBtB4FacCJUkxNadkQA&s
171,Sultan Al-Ashraf Qaytbay Mosque and Mausoleum,4.6,1068,Mosque,Religious Sites,30.0474933,31.2600435,cairo,Mosque Religious Sites,https://encrypted-tbn0.gstatic.com/images?q=tbn:ANd9GcQVtQl28FkyM6YEQ7N4B4otoIwDdMlnCdtOqsHlXVpkRH1Kj2hWjqyiWFmXGQ&s
172,Alkekhia Mosque,4.7,520,Mosque,Religious Sites,30.0492959,31.2465807,cairo,Mosque Religious Sites,https://encrypted-tbn0.gstatic.com/images?q=tbn:ANd9GcRwe4-yA3pRl0E09CaSQPaJ4R7NgwzqQHnru0BbB9W7yuPkkvEwM5J1mwirXos&s
173,Gamal Abdel Nasser Mosque,4.5,170,Mosque,Religious Sites,30.083415,31.2944055,cairo,Mosque Religious Sites,https://encrypted-tbn0.gstatic.com/images?q=tbn:ANd9GcTlslX_rYqo_zsjSM8argcl5n5bseJ3W-MAcBN9WaHOnck7A6KqOE6Y4Cw9CoQ&s
174,Masjid El Fath,4.7,10233,Mosque,Religious Sites,30.0598415,31.2461689,cairo,Mosque Religious Sites,https://encrypted-tbn0.gstatic.com/images?q=tbn:ANd9GcQmlsFmv_DNxgOzWOSO7p1Bv7R9RBenv8GMTzNtsDuvEJkovqrvYtuMKAlvnUU&s
175,ElRahman ELRahim Mosque,4.9,7,Mosque,Religious Sites,30.0613062,31.2836887,cairo,Mosque Religious Sites,https://encrypted-tbn0.gstatic.com/images?q=tbn:ANd9GcQGYw1Met2RrososYZ0I20xaAfdHbprqD4rCpxpNgMpaQLeg6SowCy9P6YtdA&s
176,Sayeda Aisha Mosque,5,7,Mosque,Religious Sites,30.0246744,31.2567916,cairo,Mosque Religious Sites,https://encrypted-tbn0.gstatic.com/images?q=tbn:ANd9GcQUGVQ42p3NUAm_dSntQyyK-sSrbTS-uQ-_onG8nSxIyJlqPRiaK-F7E7RpkcA&s
177,Aisha Fahmy Palace,4.6,2919,Art Gallery,"Historic Sites  Points of Interest & Landmarks  Architectural Buildings 
",30.05916342,31.22489908,cairo,"Art Gallery Historic Sites  Points of Interest & Landmarks  Architectural Buildings 
",https://encrypted-tbn0.gstatic.com/images?q=tbn:ANd9GcRw0MxZ_WBDfnqyVMlEE1nn9FHBQOJ0PSzuiLJHGNgOPR5RMrcpv5b43CscfA&s
178,El-Kobba Palace,4.7,88,Palace,,30.09825995,31.30416052,cairo,Palace ,https://encrypted-tbn0.gstatic.com/images?q=tbn:ANd9GcSiBdFMQPpEMeEGDYsxXyAkdMJ3uz6TrNMmAwBIywZVfzy8HimGNIYdHcxDf2A&s
179,Madrasa of Sarghatmish,4.6,27,Mosque,Religious Sites,30.0303265,31.2512798,cairo,Mosque Religious Sites,https://encrypted-tbn0.gstatic.com/images?q=tbn:ANd9GcRVV8nvt5mnq5PiMyzPAP-k33JkGED2dRM1ltQHbCPg6Lc5k645EPJASnYsUA&s
180,Bab El Nasr,4.5,2134,Historical landmark,,30.0540949,31.2648389,cairo,Historical landmark ,https://encrypted-tbn0.gstatic.com/images?q=tbn:ANd9GcSBnMn7f48YyrHch3FJt6EExO9TzqmLhYW-PqLof5OADdGFZkYd8N1wGHkp0cg&s
181,Madrasa And Dome Of Sultan Al-Nassir Mohammed Ibn Qalawun,4.6,432,Mosque,Religious Sites,30.0498014,31.2609033,cairo,Mosque Religious Sites,https://encrypted-tbn0.gstatic.com/images?q=tbn:ANd9GcR-c3AlA9Ttyq43_a9OxYkZSU3hjRv_qgDzyY-P_GMXVd_iA1TKVH30oeknuSQ&s
182,Mosque Sanjar Al-Jawli,4.7,15,Historical landmark,Religious Sites Mosque,30.0296099,31.2472271,cairo,Historical landmark Religious Sites Mosque,https://encrypted-tbn0.gstatic.com/images?q=tbn:ANd9GcRAZlF8C6oscafggjGeNjCEh-XIkzQeIwIgrMYUwWPEhY-UObaHkfh4c4NVBVE&s
183,Masjid Al Rahman Al Rahim,4.8,5582,Mosque,Religious Sites,30.0613062,31.2836887,cairo,Mosque Religious Sites,https://encrypted-tbn0.gstatic.com/images?q=tbn:ANd9GcQGYw1Met2RrososYZ0I20xaAfdHbprqD4rCpxpNgMpaQLeg6SowCy9P6YtdA&s
184,Bab Zuweila,4.6,884,Historical landmark,Historic Sites  Points of Interest & Landmarks  Castles,30.042704,31.257777,cairo,Historical landmark Historic Sites  Points of Interest & Landmarks  Castles,https://encrypted-tbn0.gstatic.com/images?q=tbn:ANd9GcSLkAqSUN94QdsOPnOiwJSi2OFJr0Xz_xR4KkFOUayQQQVOQUns2-v_syUHzmY&s
185,Kazndar Mosque,4.6,1073,Mosque,Religious Sites,30.0826485,31.2456043,cairo,Mosque Religious Sites,https://encrypted-tbn0.gstatic.com/images?q=tbn:ANd9GcTyDfpvICmkH4oepkw5edkDAUPTeuY3jm7s330nNNpjGTVA9KsYC_nfsboHmA&s
186,El Qalaa,4.7,86,Historical landmark,,30.0903059,31.2591355,cairo,Historical landmark ,https://encrypted-tbn0.gstatic.com/images?q=tbn:ANd9GcQxlbwFtt0z7stZuGJd432bGUnqk8TTcOr-_AGbYzNf6rSfSWtm-B7GplC4_A&s
187,Masjed Al Ashraf Al Gamei Al Kabeer,4.8,836,Mosque,Religious Sites,30.021789,31.2515254,cairo,Mosque Religious Sites,https://encrypted-tbn0.gstatic.com/images?q=tbn:ANd9GcTqY5h2b7sVUyxpTd4vyxQnvCawLO_X53jPWyWAeBf3shLhT3elYkHW9p49eJQ&s
188,City Of The Dead Cairo Egypt,4.2,137,Cemetery,necropolis,30.0434528,31.272349,cairo,Cemetery necropolis,https://encrypted-tbn0.gstatic.com/images?q=tbn:ANd9GcQMrzWj47iJeIbfv-a1rGWeM9OMj0hmQVGOZxyaPsv_igu2N4MAPcL_8i8hQK0&s
189,Bayt Almaamar Almasry,4.6,286,Historical place,,30.0324873,31.2583005,cairo,Historical place ,https://encrypted-tbn0.gstatic.com/images?q=tbn:ANd9GcS7Cumip5z4eDJCQkIscALDXtsHr3vOgGhZl8fmnDwiOYxz6Mxx9uIfLdulmw&s
190,The complex of religions,4.6,297,Religious institution,Religious Sites,30.0065168,31.2322989,cairo,Religious institution Religious Sites,https://encrypted-tbn0.gstatic.com/images?q=tbn:ANd9GcTj2X8x1hzKs7qfLDHBE2S_GD6c5PPeW8Q1jtH60ijquZqIHOtkL9Y_txyx8N4&s
191,Al-Hosary Mosque,4.7,51594,Mosque,Religious Sites,30.0444196,31.2357116,cairo,Mosque Religious Sites,https://encrypted-tbn0.gstatic.com/images?q=tbn:ANd9GcRlgzBfdb9NYPvMQT1eGZa_vvwoikI9QzXPULXamomkP_eGVfTO08QgNQFa6w&s
192,Al Rahman Mosque,4.7,190,Mosque,Religious Sites,30.0467775,31.2399571,cairo,Mosque Religious Sites,https://encrypted-tbn0.gstatic.com/images?q=tbn:ANd9GcTDkx0kUQceggy60ZJPL9hW4Kv6LyI9Xhr0Wb926J01geoB5HfYPKc1SFq-S_4&s
193,Southern Cemetery of Al Basatin,4.2,1176,Historical landmark,cemetry necropolis,30.0210257,31.264828,cairo,Historical landmark cemetry necropolis,https://encrypted-tbn0.gstatic.com/images?q=tbn:ANd9GcSJnOevFihW5EcIxWKSOXk9uSYDJNQsKgv3Lhbiht-9c20O_NjhtiM-xuFZoQ&s
194,Firdous Mosque,4.8,46,Mosque,Religious Sites,30.0444196,31.2357116,cairo,Mosque Religious Sites,https://encrypted-tbn0.gstatic.com/images?q=tbn:ANd9GcQeV9hVAvZZMkJ3jJvwJ8UewlFG6uTUV36Nq2pgo2i7UbjhzM75d__JjW9OuVs&s
195,The Hanging Church,4.6,5182,Church,Architectural Buildings  Religious Sites Christinaity,30.0052663,31.2301826,cairo,Church Architectural Buildings  Religious Sites Christinaity,https://encrypted-tbn0.gstatic.com/images?q=tbn:ANd9GcTFX66z0mRbk-yfBWbRcJCYaoWAaCrOklnBW4fv91_zn1WMAoMBgBUvw-RmhA&s
196,Museum Of Modern Egyptian Art,4.2,247,Tourist attraction,Art Museums,30.043688,31.2246792,cairo,Tourist attraction Art Museums,https://encrypted-tbn0.gstatic.com/images?q=tbn:ANd9GcR1aLHw5bg9gQSxXSeZQzAReYpLH-Ph0SbDtKaPG7MjG8chLb0OY_k8ni7uvg&s
197,El Sayed Ahmad Albadawy Mosque,4.5,2779,Mosque,Religious Sites,30.0444196,31.2357116,cairo,Mosque Religious Sites,https://encrypted-tbn0.gstatic.com/images?q=tbn:ANd9GcQAESaJBhXktX2nhBcItmvi-SRQLiAp5IZed30pIpghzc7pHinVw0rGvibaow&s
198,Sayidi Ibrahim El Dessouky Mosque,4.5,3274,Mosque,Religious Sites,30.0444196,31.2357116,cairo,Mosque Religious Sites,https://encrypted-tbn0.gstatic.com/images?q=tbn:ANd9GcR8cebI0RK5YrDljBeG4r_v5iA3KTsQnONUfTxjQFR1QyDVplevgkX77Fu8hFs&s
199,El Nabi Daniel Mosque,4.5,1699,Mosque,Religious Sites,31.194923,29.9023409,alexandria,Mosque Religious Sites,https://encrypted-tbn0.gstatic.com/images?q=tbn:ANd9GcRGjWPz-HPfTGcAqMifpClPwJFzbrJMDWVBxwoskV9Ud6wiF8sp-D33UgiTs6w&s
200,Abbasi Mosque,4.6,216,Mosque,Religious Sites,30.0444196,31.2357116,cairo,Mosque Religious Sites,https://encrypted-tbn0.gstatic.com/images?q=tbn:ANd9GcRRTmEK4SPJDmGu156db56tXSOmcX4u9iunXkEOibPjsgLEnhsWRE8Ta1Jj6g&s
201,Mosque of Sidi Abdullah Ibn al-Harith,4.4,53,Mosque,Religious Sites,30.0444196,31.2357116,cairo,Mosque Religious Sites,https://encrypted-tbn0.gstatic.com/images?q=tbn:ANd9GcSTDPPdRxx2vX0yIcaAKVFjASXIXGSH4VogSG1OJI7jbVuseZdh6HdlKfnGNl8&s
202,Al-Motawally Al-Trini Al-Kabeer mosque,4.7,124,Mosque,Religious Sites,30.0444196,31.2357116,cairo,Mosque Religious Sites,https://encrypted-tbn0.gstatic.com/images?q=tbn:ANd9GcQLdB4INXE2qFZZj8-6F9KZiveqAx4beTv9eWLLzeT8gSAkMLWmrEo5kakJcyQ&s
203,Attarine Mosque,4.6,502,Mosque,Religious Sites,31.1952116,29.8989901,alexandria,Mosque Religious Sites,https://encrypted-tbn0.gstatic.com/images?q=tbn:ANd9GcQc3KbV6-ZrsT3qQr7VQOEzBJnTH-PJyd4wIm-WxUT8FM7_Vk4NXthcKj9781Q&s
204,National Military Museum Egypt,4.3,"4,531",Museum,Warfare exhibits dating to ancient times museum,30.030853,31.262557,cairo,Museum Warfare exhibits dating to ancient times museum,https://encrypted-tbn0.gstatic.com/images?q=tbn:ANd9GcShptnVRjQXMhRdiv2By4Fq-gMlmhfWDyd6h6oO3XusQu57ws2z_1EOu51s1eg&s
205,Al-Gawhara Palace,4,95,Palace,Palatial museum housing cultural relics,30.0279942,31.2594134,cairo,Palace Palatial museum housing cultural relics,https://encrypted-tbn0.gstatic.com/images?q=tbn:ANd9GcSmwQ8RFtvwVYiqQT3EJD3YnYW-SUu178vSh9NEiS9TzqWLUYxp-u6YD5DQWLE&s
206,Orman Garden,4.2,"12,540",Garden,Huge complex of flowers & native plants,30.0290398,31.2129736,cairo,Garden Huge complex of flowers & native plants,https://encrypted-tbn0.gstatic.com/images?q=tbn:ANd9GcROvkvQh3SGwAWwViWIlvx0FPJ97PZ4-oiCXOFu8Aj6V3ccYr0Nwcn8KTYy8Vg&s
207,Saint Barbara Church Complex,4.8,72,Church,Church and architecture Religious sites Christinaity,30.0060835,31.231334,cairo,Church Church and architecture Religious sites Christinaity,https://encrypted-tbn0.gstatic.com/images?q=tbn:ANd9GcQsE5JhRaQklWpMCkTymoFgUrGTRfmUBVluEhepbuoSJk97KkQnoRihF8HneVM&s
208,Umm Kulthum Museum,4.3,761,Museum,biographical museum,30.0074532,31.2252869,cairo,Museum biographical museum,https://encrypted-tbn0.gstatic.com/images?q=tbn:ANd9GcR9jb835vaIqIhf9C5efbC4100UYwM2RMukayeHCh8zA_AWv0bATAx4xpxe_YQ&s
209,Aquarium Grotto Garden,3.8,"3,992",Garden,Leafy park with man-made caves,30.0563997,31.2190813,cairo,Garden Leafy park with man-made caves,https://encrypted-tbn0.gstatic.com/images?q=tbn:ANd9GcQ8ho0662cCTphAbSe5z01suKD7CBT0Gju_A1tlLE-KlGumN-2LreeS-fyAtQ&s
210,Valley Temple of Khafre,4.6,338,Historic,Ancient egypt and ancient history historic sites,29.9747367,31.1383572,giza,Historic Ancient egypt and ancient history historic sites,https://encrypted-tbn0.gstatic.com/images?q=tbn:ANd9GcRLaUyq1pe4KKQvt0e1DXDZEJv2nm4zmyVHdw16gawkxVhycTI-SqsK434sG_w&s
211,Pyramid of Sahure,4.5,88,Historical landmark,Ancient complex of pyramids & temples historic sites,29.8976335,31.2033927,giza,Historical landmark Ancient complex of pyramids & temples historic sites,https://encrypted-tbn0.gstatic.com/images?q=tbn:ANd9GcTLi6FFxegUISJPxwLiONPWsxAo6VS1OUuA1XmFIMV8nOPl0ZjGtPgqhm4Fvg&s
212,St. George's church,4.7,371,Church,Religious Sites Round church with an ornate interior Christinaity,30.00629949,31.2300886,cairo,Church Religious Sites Round church with an ornate interior Christinaity,https://encrypted-tbn0.gstatic.com/images?q=tbn:ANd9GcTE375BkedQQw2us18p2mxW7VFib4Tu1ZpFgPmyKFHRBvk_KdkIcoGOuLay6HY&s
213,Mahmoud Mukhtar Museum,4.5,261,Museum,"Museum, sculpture and art",30.0406962,31.2228689,cairo,"Museum Museum, sculpture and art",https://encrypted-tbn0.gstatic.com/images?q=tbn:ANd9GcQoDKCTaQerlmdIN5d8IJmm_3e7PkVgTMGFU7YhsiB4PgEplLn92tbmisVO8Q&s
214,Rhoda Island,4.4,224,island,,30.0225,31.2261111,cairo,island ,https://encrypted-tbn0.gstatic.com/images?q=tbn:ANd9GcSnIBmhadg__LoL8ORsLluZMFE-0EuFMK7Bei0bhwAX50qTjchtl8ulfmQdKA&s
215,Manasterly Palace,4.2,821,Palace,Grand historic building & music venue museum,30.0071815,31.2248196,cairo,Palace Grand historic building & music venue museum,https://encrypted-tbn0.gstatic.com/images?q=tbn:ANd9GcTQpUsUEToDbTGHVM1bIlYXNMkGp2HJYnUbia9FqILYtrskl2cgAHpGk82rgw&s
216,Pyramid of Djedefre,4.2,77,Tourist attraction,Ruined ancient site atop a rocky plateau,30.0322618,31.0747136,giza,Tourist attraction Ruined ancient site atop a rocky plateau,https://encrypted-tbn0.gstatic.com/images?q=tbn:ANd9GcR1ftL4kmeMgQXOzguIZvWrsIQEU7n_BbST6prIJyxzxNl3eWqjzQhiG97F5uY&s
217,Zoological Museum,4.7,181,Museum,Speciality Museums zoolgy,30.02076773,31.21492436,giza,Museum Speciality Museums zoolgy,https://encrypted-tbn0.gstatic.com/images?q=tbn:ANd9GcRZoB8ypZNBZt8hQzPYuivUWpxqLm_AQcKkXx_hGsnWay7WllATpvC0QzCxNLw&s
218,Picasso Art Gallery,4.6,311,Art Gallery,"Pablo picasso, art and painting",30.0615061,31.22242,cairo,"Art Gallery Pablo picasso, art and painting",https://encrypted-tbn0.gstatic.com/images?q=tbn:ANd9GcTow33TJASBoM4eBhcvuv_YKA6h1i6k80Z2_wGQalnOHxsdl1Q9J9N5tYMguWc&s
219,Maadi Island,4.2,"8,124",Garden,,29.9657957,31.2393105,cairo,Garden ,https://encrypted-tbn0.gstatic.com/images?q=tbn:ANd9GcRtD3eZnvpcold8J1jCMAQ6u0kEO5gl1VD01xALVu3BsEZKY3ui1JVIYwN8DA&s
220,Pyramid of Neferirkare,4.4,29,Tourist attraction,Ancient memorial & temple complex Historic Sites,29.8950932,31.2022488,giza,Tourist attraction Ancient memorial & temple complex Historic Sites,https://encrypted-tbn0.gstatic.com/images?q=tbn:ANd9GcTAR831Jvz9iyTGC_BxEydK9M1YaOQyeJ4N7bkNLTUFxqHgdD8W7ubXBTxEIw&s
221,Unfinished Pyramid,3.9,36,Historical landmark,Ancient egypt and ancient history Historic Sites,29.9402081,31.1514898,giza,Historical landmark Ancient egypt and ancient history Historic Sites,https://encrypted-tbn0.gstatic.com/images?q=tbn:ANd9GcRnkMEF3nBovZ9WXM6yORPJ6g9eBbxIUqLHkJIWsbfNb1M9fiu0nGQcIXq5gA&s
222,Topaz Bazaar,4.5,125,Bazar,Shopping Tours,29.9849193,31.1432103,giza,Bazar Shopping Tours,https://encrypted-tbn0.gstatic.com/images?q=tbn:ANd9GcSTYBGiVOVFEoqq00VVb4yCQHKG6dfWi2iaAhIlDgxsABfYYenznx1p8lV-hg&s
223,Al Horreya Garden,4.2,"4,063",Garden,Palms & statues in riverside green space Botanical,30.0414695,31.2257914,cairo,Garden Palms & statues in riverside green space Botanical,https://encrypted-tbn0.gstatic.com/images?q=tbn:ANd9GcQB1loPsWDXhXQIRlBIpWOjV5G9PQLIXxB34m0XfD90S8NqfesyTCS1wM_tJQ&s
224,Zamalek Art Gallery,4.6,270,Art Gallery,Art Galleries,30.0613676,31.2229587,cairo,Art Gallery Art Galleries,https://encrypted-tbn0.gstatic.com/images?q=tbn:ANd9GcSpB4CZ7x-n_4nUevPoUymxtI83oDT-WAelBaDAQ01YLHG-pRnC48WMeNnO0T0&s
225,Al-Nasser Mohammed Ibn Kalawoun,4.7,318,Mosque,Religious Sites,30.0292077,31.2608701,cairo,Mosque Religious Sites,https://encrypted-tbn0.gstatic.com/images?q=tbn:ANd9GcR9GbYjtr1Ym06YsLxzUmHhHCLgiEkEKhtO4WGXVLk4qjywJqLqUbg0dk06xw&s
226,El Andalos Park,4.1,810,Park,Moorish-style water feature & statues,30.0442019,31.2274082,cairo,Park Moorish-style water feature & statues,https://encrypted-tbn0.gstatic.com/images?q=tbn:ANd9GcSZUaLFfchmXTR6hTClVDzvnU9KN5uYPQmk3TE4xFFx52gbWK6iHm8fEJnwcw&s
227,Islamic Ceramics Museum,3.9,64,Museum,Art Museums,30.0571741,31.2226481,cairo,Museum Art Museums,https://encrypted-tbn0.gstatic.com/images?q=tbn:ANd9GcQKPTlKZvkabdSfj3-wekxToS9F4_rtwAD6IGDu97hejj9ZUdjxa8pUk4mETOo&s
228,Al-Roda Nilometer,4.5,572,Historical landmark,,30.0069673,31.2250006,cairo,Historical landmark ,https://encrypted-tbn0.gstatic.com/images?q=tbn:ANd9GcSgwd3L3ko9HLrA77WhylF1xjNiTIo6tr-P6eCdr46LtEgmsObJ-dWiWCVYAxQ&s
229,National Police Museum,3.9,98,Museum,Speciality Museums,30.03083534,31.25991996,cairo,Museum Speciality Museums,https://encrypted-tbn0.gstatic.com/images?q=tbn:ANd9GcTyGZC_Kir9pddzR1zXA7TBV2kOMk6_PfY4i1V0MsFHbOa3hnQMn-jB1g-WDrE&s
230,Karmet Ibn Hanie Cultural Center Ahmed Shawky Museum,4.3,164,Museum,,30.0212625,31.2174341,cairo,Museum ,https://encrypted-tbn0.gstatic.com/images?q=tbn:ANd9GcTqtfNMR5kFi26m8A08OsrGtVEw5HLn2uvLqjVhpBsBd9F5G9cqw2A9h3D-tg&s
231,Pyramids of Queens,4.6,386,Historical landmark,Ancient temples at Giza necropolis,29.9715717,31.1279886,giza,Historical landmark Ancient temples at Giza necropolis,https://encrypted-tbn0.gstatic.com/images?q=tbn:ANd9GcQJAXRoUppq_Ar9UAp9Xf0EX_VzQQ__TeoyXtU936-Zis1nvR8apxnx_aRozg&s
232,Safari Park,4.1,"11,594",Park,"Ferris wheel, pony rides & boating",30.07566311,31.19166542,giza,"Park Ferris wheel, pony rides & boating",https://encrypted-tbn0.gstatic.com/images?q=tbn:ANd9GcREZhH0W56d4rnAxaN9dGY2Ls3hErXYfjQfEpJJbNzeJudOLrXaCnkJzH9mIEs&s
233,Geographical Association of Egypt,4.4,75,Museum,,30.041119,31.2360473,cairo,Museum ,https://encrypted-tbn0.gstatic.com/images?q=tbn:ANd9GcQqKZldQfyLoxluMUtXS9iU8cGyJmOBJuKNHbS1L18ZfyNNkNwHJLA36-fwoQ&s
234,Abou Seifain Church,4.7,158,Church,Monastery and architecture Religious Sites Christinaity,30.01243597,31.23075397,cairo,Church Monastery and architecture Religious Sites Christinaity,https://encrypted-tbn0.gstatic.com/images?q=tbn:ANd9GcQ5NhpaHgSGg8KUyE0cTjrr2tuWK9wpRC-RR_uPsZCRkYJhqtO-Gu0tlJFcfFI&s
235,The Palace Of Arts,4.5,139,Museum,Art Museums,30.0434641,31.2261003,cairo,Museum Art Museums,https://encrypted-tbn0.gstatic.com/images?q=tbn:ANd9GcRV7m2kaFNjDA5DPRCA3BRKSzLsf5A2NG_FCbCsos7J9Mmok5MU5-Wj07RwXA&s
236,Jaz?rat Warr?q al ?a?ar,4.4,111,island,,30.1186111,31.2258333,cairo,island ,NULL
237,The Royal Mummies Hall,4.7,984,Museum,Ancient Egyptian mummies & coffins,30.0081493,31.2482604,cairo,Museum Ancient Egyptian mummies & coffins,https://encrypted-tbn0.gstatic.com/images?q=tbn:ANd9GcSw--tV826syE3xyfG7eGAitd493oXr8JUJzS9mkX-oznG8mertVB4ROsld1g&s
238,Darb 1718,4.3,"1,667",Archive,"Live music, yoga classes & craft courses contemporary art and culture center",30.0030053,31.2317737,cairo,"Archive Live music, yoga classes & craft courses contemporary art and culture center",https://encrypted-tbn0.gstatic.com/images?q=tbn:ANd9GcS_NEMlLWtPJLLPt7rENJnf0Z9Pwigt9se1NglYNrTDIpy4V8_xRCpQD5AULw&s
239,Safarkhan Art Gallery,4.3,59,Art Gallery,Art and modern art,30.0605233,31.2220453,cairo,Art Gallery Art and modern art,https://encrypted-tbn0.gstatic.com/images?q=tbn:ANd9GcTZNtO-CSo6nP3Yua71z3AAOvU7iynakgpe-33TxQ8sNkaiImGShNROjNSzBx4&s
240,Ramses Wissa Wassef Art Center,4.5,124,Art Gallery,Art and museum,29.9687532,31.1759566,giza,Art Gallery Art and museum,https://encrypted-tbn0.gstatic.com/images?q=tbn:ANd9GcS9ApC0yw3VNBUbPuSvvslD_2Ko9SsK-ONLjxB1txQOrQWpf-qj9MNm5GYzsls&s
241,Jaz?rat adh Dhahab,3.9,20,island,,31.2058333,30.5533333,giza,island ,NULL
242,Abou Ghorab Temple,4.5,43,Temple,"Temple, ancient egypt, ancient history and architecture historic sites",29.9040194,31.194124,giza,"Temple Temple, ancient egypt, ancient history and architecture historic sites",https://encrypted-tbn0.gstatic.com/images?q=tbn:ANd9GcSNwKAXl2bnB68hhOvvTHXSWbuqudPaooAsCIPlIJQGrXqxZ5Nx5a89w8eyGA&s
243,Foustat Traditional Crafts Center,4.4,194,art and museum,Handicraft,30.0063684,31.2347231,cairo,art and museum Handicraft,https://encrypted-tbn0.gstatic.com/images?q=tbn:ANd9GcTCYiIzo6WAGV2f5XDivy9SrHPGOdpG37ula49fTRe9Drp1FaMpCdcATBftXOY&s
244,Egypt's Renaissance Statue,4.4,208,statue,"Renaissance, art and history",30.0283309,31.2159331,giza,"statue Renaissance, art and history",https://encrypted-tbn0.gstatic.com/images?q=tbn:ANd9GcQC_jD1mycXyr6Wn38VrUp6TwRH6LjNAAoLesZ4mTCEqAupC3cV_jFyhg4B_Eo&s
245,Sulayman Pasha Mosque,4.8,40,Mosque,Religious Sites,30.0310618,31.2643464,cairo,Mosque Religious Sites,https://encrypted-tbn0.gstatic.com/images?q=tbn:ANd9GcSCinVTEV6Bsls14alQPgSLivNW4yp-_SYv3lnuu5NfMbHVTi_qWUvRAUUrTg&s
246,Tomb of Queen Khentkawes I,4.5,48,Historical landmark,Historic sites,29.973348,31.1355078,giza,Historical landmark Historic sites,https://encrypted-tbn0.gstatic.com/images?q=tbn:ANd9GcTuB4TBUlIWRRyav5_lPhDkPm0UUUdzPTgVDM5IhcUP_sIiRpV2GKVwotE-2Q&s
247,Cairo Zoo,3.8,127,Zoo,,30.0221154,31.2160752,giza,Zoo ,https://encrypted-tbn0.gstatic.com/images?q=tbn:ANd9GcQRtq5YBWndWVHYEkqOWDjOsSTjLRWOlPDiAuC9IMof4hPsmUs9k-zco90mWcE&s
248,Nation's House Museum,4.3,220,Museum,,30.03804547,31.23745682,cairo,Museum ,https://encrypted-tbn0.gstatic.com/images?q=tbn:ANd9GcS2QIr-Pj0ZwPqXA6NGiDa7R_GRgkYMTyhdzWfyszzOCCLWKVRzt2J1oxVytQ&s
249,Umm Kulthum Park,4.1,"1,513",Park,Landscaped green space on the Nile,30.0310804,31.2256242,cairo,Park Landscaped green space on the Nile,https://encrypted-tbn0.gstatic.com/images?q=tbn:ANd9GcSOy0Alkl_Qrol4pH_7O8CKpTAwR7-yqteheD8hgALH9msag5fz4wsZdLUITA&s
250,Bab El Azab,4.4,34,Historical landmark,,30.0310615,31.2581678,cairo,Historical landmark ,https://encrypted-tbn0.gstatic.com/images?q=tbn:ANd9GcR6ztATm6YDG_DhIYSX_JNyMtZFqax9OStVnvLtfiVomyORrcIaVaPm0yp0DM8&s
251,Mausoleum of al-Imam al-Shafi'i,4.7,177,Historical landmark,,30.0118028,31.2580629,cairo,Historical landmark ,https://encrypted-tbn0.gstatic.com/images?q=tbn:ANd9GcTJniabKHso7dF-hzKvjN2ifv5-7UQGu1zgXFZr2u1e0UOuGePnMTgf-jyNBg&s
252,Al Funun Garden,3.8,"4,727",Garden,Riverside spot dotted with palm trees,30.0228072,31.2228763,cairo,Garden Riverside spot dotted with palm trees,https://encrypted-tbn0.gstatic.com/images?q=tbn:ANd9GcTzD3s7wsEpsmbprsJWjDjE2AkXZXn1TrVuVZiNeF7l-1TAA_OEVhMqxa7oiw&s
253,Pyramid of Hetepheres I,4.5,136,Historical landmark,Remains of an ancient queen's tomb Historic Sites,29.9789197,31.136135,giza,Historical landmark Remains of an ancient queen's tomb Historic Sites,https://encrypted-tbn0.gstatic.com/images?q=tbn:ANd9GcQeRPVfKcOSQZERKvuaU_zsj6hody6mkl94_bCmfWy4-5s-otFa7pJksV1qxQk&s
254,Hollywood Sharm El Sheikh,3.9,"4,760",Park,Points of Interest & Landmarks theme,27.8648085,34.298482,sharm el sheikh,Park Points of Interest & Landmarks theme,https://encrypted-tbn0.gstatic.com/images?q=tbn:ANd9GcSysg4RFkkna4PF3aJsjLmawYGxeWUsYa2JouknUNDVMK68q9inkjzkPMHTyDc&s
255,Soho Square Dancing Fountain,4.6,"6,446",Tourist attraction,Points of Interest & Landmarks  Fountains,27.96281412,34.39397681,sharm el sheikh,Tourist attraction Points of Interest & Landmarks  Fountains,https://encrypted-tbn0.gstatic.com/images?q=tbn:ANd9GcQ15LHoCRhy_POIBjc7LFTj4z_9c8cYofdd9B8e1uXVytqNrn8SyD_ndYz8GVk&s
256,Mustafa Mosque,4.7,"3,770",Mosque,Points of Interest & Landmarks  Architectural Buildings  Religious Sites ,27.8924689,34.2996353,sharm el sheikh,Mosque Points of Interest & Landmarks  Architectural Buildings  Religious Sites ,https://encrypted-tbn0.gstatic.com/images?q=tbn:ANd9GcRTW4TFBJmBd5vo0_wJPuZYeRUc48dhvkJfFPAv_0VPfyItjeoRF-dPosC6Ow&s
257,Cleo Park,4.1,838,Park,Water Parks,27.9168029,34.3229803,sharm el sheikh,Park Water Parks,https://encrypted-tbn0.gstatic.com/images?q=tbn:ANd9GcTDCW5FGCZCFdoFFD3DTaOYzFmV2FdcFcJ7OXbpGbRAMMTaQu1geCr44BWPmQA&s
258,Peace Square,4.5,"1,641",Park,National park,27.96378289,34.36132279,sharm el sheikh,Park National park,https://encrypted-tbn0.gstatic.com/images?q=tbn:ANd9GcQpTKQTwOyOAjET854L4hflawPQQTG_5G_8aITSV-t8zpGVXMTh5GKtrKjF7w&s
259,The Heavenly Cathedral,4.8,"3,664",Church,Churches & Cathedrals Christinaity Religious Sites,27.8880633,34.2954114,sharm el sheikh,Church Churches & Cathedrals Christinaity Religious Sites,https://encrypted-tbn0.gstatic.com/images?q=tbn:ANd9GcSgmbGw9sWwUFfvNVkuIU8mSHW7a5DzDdVwMpb0V19jDdl0kzCuT3QqitQIXtU&s
260,El Sherif Safari,4.2,"2,580",Tourist attraction,"4WD, ATV & Off-Road Tours  Boat Tours  Water Sports  Sightseeing Tours",27.9429049,34.3123207,sharm el sheikh,"Tourist attraction 4WD, ATV & Off-Road Tours  Boat Tours  Water Sports  Sightseeing Tours",https://encrypted-tbn0.gstatic.com/images?q=tbn:ANd9GcTjwDk_s_4XzuQ6uhNgZsC9Yv-WaRrXgcbt8D_ZNptgS8Ifm3DSl06k8bK1nQ&s
261,Safari Sharm,4.2,"2,852",Tourist attraction,,27.95350605,34.28735107,sharm el sheikh,Tourist attraction ,https://encrypted-tbn0.gstatic.com/images?q=tbn:ANd9GcSfeYt4BHg1fHt1RIS1e4sD41TSfvF_shcMRGlTWLBluQCCP4r3H7xU_soD_w&s
262,Old market sharm el sheikh,4.4,"21,874",Cruise agency,Flea & Street Markets,27.8653202,34.2957852,sharm el sheikh,Cruise agency Flea & Street Markets,https://encrypted-tbn0.gstatic.com/images?q=tbn:ANd9GcQ7iAouU1NN4XpaU1B5iD-bA0xnbOL9LT3RgOtrF2pzFwuaS_MREhkW9rgfAlQ&s
263,Wadi Al-Khorom,4.3,137,Tourist attraction,,27.94278987,34.29400194,sharm el sheikh,Tourist attraction ,https://encrypted-tbn0.gstatic.com/images?q=tbn:ANd9GcT1exJTwfGZLTAQCao8DTVFBJY6_zPVeLh9HzxmfGPlk3iXNDMINnWP_yPY&s
264,The monument in Sharm El Sheikh,4.5,"1,483",Tourist attraction,,27.8486318,34.3163354,sharm el sheikh,Tourist attraction ,https://encrypted-tbn0.gstatic.com/images?q=tbn:ANd9GcSeyPm0IpphlzppM6EGeC4joMw1RVC3k20VD4SIwvNVAOTACUGWiI4J075XKw&s
265,The Old Market,4.4,"8,825",Tourist attraction,,27.8655573,34.29583884,sharm el sheikh,Tourist attraction ,https://encrypted-tbn0.gstatic.com/images?q=tbn:ANd9GcSF_uUpILVYsCPFwvJj0ypTccoX7LNOVBt2kHHs2LO55F9GWuVWrWm8D6lutw&s
266,Royal Sea Scope submarine- Egypt SunMarine Fleet,4.4,"1,359",Tourist attraction,Submarine Tours,27.8619154,34.2898595,sharm el sheikh,Tourist attraction Submarine Tours,https://encrypted-tbn0.gstatic.com/images?q=tbn:ANd9GcStbogimDO-GsISpVxNl51jOsaAHXQ3LJBJv30DQzNrxamYcm3gKXaDeYeoVE8&s
267,SOHO Square Sharm El Sheikh,4.6,"34,810",Shopping mall,Shopping Malls,27.9625652,34.393809,sharm el sheikh,Shopping mall Shopping Malls,https://encrypted-tbn0.gstatic.com/images?q=tbn:ANd9GcT1L9vQOQe7laD2mgWbuZjF34HAr3_x0P1iyuAkPE8cLA0vu0MjeijcEvA0sg&s
268,Royal Seascope Submarines Hurghada,4.3,718,Tourist attraction,,27.2578957,33.8116067,sharm el sheikh,Tourist attraction ,https://encrypted-tbn0.gstatic.com/images?q=tbn:ANd9GcTrRSa1ITt46VuHjjlTgd5BUABfq0sBrTwiOWu6NjTSwH0fDaQ3ekZGMex3yA&s
269,Travelino Club Egypt | Escursioni Sharm el Sheikh Excursions,4.7,117,Travel agency,Cultural Tours  Swim with Dolphins  Boat Tours  Sightseeing Tours  Day Trips,27.8952116,34.3043633,sharm el sheikh,Travel agency Cultural Tours  Swim with Dolphins  Boat Tours  Sightseeing Tours  Day Trips,NULL
270,Pedestrian Rd Neama Bay,4.4,"1,314",Tourist attraction,,27.9123271,34.3224149,sharm el sheikh,Tourist attraction ,https://encrypted-tbn0.gstatic.com/images?q=tbn:ANd9GcQBAglURO_59IjE3OW3jcErnKcSYbbtYS687HE5-2YPRBm3O9bDeJwW0qlGPXo&s
271,Sharm El Sheikh Museum,4.6,375,Museum,,27.9312948,34.3456962,sharm el sheikh,Museum ,https://encrypted-tbn0.gstatic.com/images?q=tbn:ANd9GcSrYsY-QmysvD9rLF1m3FxJ2mkdYtf41vqqPih4C8DSrVOtPbjJPNLtrkDswQ&s
272,Sahaba Mosque,4.8,"2,569",Mosque,Architectural Buildings  Religious Sites,27.86661696,34.2952438,sharm el sheikh,Mosque Architectural Buildings  Religious Sites,https://encrypted-tbn0.gstatic.com/images?q=tbn:ANd9GcSBGIUzfFWZqyLxEv7a7mmsv3Zd_Da5kHDfUe0N0yo1pDHo_pbVd8w23ckfIaI&s
273,Ghibli Raceway,4.4,277,Go-kart track,Auto Racing Tracks,27.9219655,34.3446161,sharm el sheikh,Go-kart track Auto Racing Tracks,https://encrypted-tbn0.gstatic.com/images?q=tbn:ANd9GcThmz_e0tQjIxQWrHZLl4Vw_VV26vC8iZKMpXWK0jpVmMu8WPWoCk5FmSLt9dM&s
274,run4peace run4egypt,4.4,109,Historical landmark,,27.96436567,34.36115377,sharm el sheikh,Historical landmark ,https://encrypted-tbn0.gstatic.com/images?q=tbn:ANd9GcQHGDB2mobxCWoMYR3eEhEu4QRoYc_r_DVbb8TLZNo4ByNiPWfRR_mtGuaFpQ&s
275,sharks bay,4.6,474,Beach volleyball club,Beaches,27.95157847,34.38441403,sharm el sheikh,Beach volleyball club Beaches,https://encrypted-tbn0.gstatic.com/images?q=tbn:ANd9GcThFyFkZxGDbObnnM4ePP1dfYsn1qIX3eQL6MkLsf_eEcphKNiMwlij4mbUhVg&s
276,Naama Bay,4.5,"2,389",Water,Bodies of Water  Beaches,27.9116973,34.3324244,sharm el sheikh,Water Bodies of Water  Beaches,https://encrypted-tbn0.gstatic.com/images?q=tbn:ANd9GcQf5MbQHcpuTPRy8FsvwttFo-nhSMd1KN4HhiGxSXRTXN-fWCTdoUTmCDZ60w&s
277,Oasis safari T,4.1,52,Tourist attraction,,27.9443618,34.3127305,sharm el sheikh,Tourist attraction ,https://encrypted-tbn0.gstatic.com/images?q=tbn:ANd9GcQU0cJ9M9BEl1ESKdtRE8PuZVw5CXsBgtOL6ApcQy2ckAo-WhI_sG1fsXGJQA&s
278,Dolphina,4.2,"1,559",Tourist attraction,Amusement & Theme Parks,28.05434221,34.42543794,sharm el sheikh,Tourist attraction Amusement & Theme Parks,https://encrypted-tbn0.gstatic.com/images?q=tbn:ANd9GcQBAGsc6cNUHWidMnjxKccVPJuQv3gt3vKJD0SLucE0kaXY3ifpK4lJ6B3Z0w&s
279,Safari Assembly,4.2,299,Whale watching tour agency,,27.93819771,34.30999532,sharm el sheikh,Whale watching tour agency ,https://encrypted-tbn0.gstatic.com/images?q=tbn:ANd9GcRMQidTSgSCXpx2Us9Nt-_RlZ3NwU7W9ifCe05Jj7PrKAYnEi3TYe5OSXAwhA&s
280,Genena City,4.2,"6,266",Shopping mall,,27.9080092,34.3198269,sharm el sheikh,Shopping mall ,https://encrypted-tbn0.gstatic.com/images?q=tbn:ANd9GcSgzyF1kRY6-kjMz8At1RXHtDDcS1xNS5-ZUQgpyCQd0d3Fk6u5gGv2gDg4n-I&s
281,VIVA Beach & Restaurant,4,"1,088",Beach,public,27.9094337,34.3266572,sharm el sheikh,Beach public,https://encrypted-tbn0.gstatic.com/images?q=tbn:ANd9GcQZxQndsQsTOtmJG0mhpGNoTeptqY0tD7Sir9el3Da6o_sanYdBm9fJ3pI0Se4&s
282,Taj Mahal - Sharm El Sheikh Night Club,3.8,115,Night club,Dance Clubs & Discos,27.859143,34.3114822,sharm el sheikh,Night club Dance Clubs & Discos,https://encrypted-tbn0.gstatic.com/images?q=tbn:ANd9GcR_pugcHU_opWJ4zrmaPcX5H24ugxUFZUhO2YyOuvw6JUTx5nZ4lN7j-Es8EQ&s
283,Great location for Photoshoots,4.8,87,Tourist attraction,,27.79468323,34.2118929,sharm el sheikh,Tourist attraction ,https://encrypted-tbn0.gstatic.com/images?q=tbn:ANd9GcRYjKo7XhzkkofFNdcy9CUtjQc2nRhfqDu_ybDcz4iylygn-BKdXbFvPFPBYQ&s
284,Ras Mohamed Nature Reserve,4.8,"1,578",Tourist attraction,,27.749881,34.2384391,sharm el sheikh,Tourist attraction ,https://encrypted-tbn0.gstatic.com/images?q=tbn:ANd9GcTCtVNHCrVfKvCDO7qngRUk8pbh6Wbru13gCTfXGvwZGoR2uzbHOG5Ixd_gsQ&s
285,Rixos Beach,4.8,990,Beach,public,28.02936948,34.44210444,sharm el sheikh,Beach public,https://encrypted-tbn0.gstatic.com/images?q=tbn:ANd9GcQ6XAG7bD2lwZxYBsIwAsBe56YcpY54--kSRxs4c2ZUS-K7o9TG4GWLsbiKHg&s
286,La Strada Mall,3.9,208,Shopping mall,,28.0428139,34.429247,sharm el sheikh,Shopping mall ,https://encrypted-tbn0.gstatic.com/images?q=tbn:ANd9GcRyJvHasjoag3EsjqhVsrgKWlzPtKL-bRh-oyE6BkFAkz5QxTRtu9Ks3cYG4A&s
287,Fun & Sun Managed by Rixos Premium,4.8,556,Park,,28.0359458,34.4271087,sharm el sheikh,Park ,https://encrypted-tbn0.gstatic.com/images?q=tbn:ANd9GcQ2g_KSyVt2hP6BLkGoZ-re3wd1ut0isygHJN--nNlo8HgZMAOSJ2ug1dghxw&s
288,Luxor Museum,4.7,"4,784",Museum,History Museums,25.7076132,32.6445491,luxor,Museum History Museums,https://encrypted-tbn0.gstatic.com/images?q=tbn:ANd9GcTUO1OI_K2TFNsvBD57Af-NsKAImRzpYstKKNVcr3356CQhKaYMJrDhY437unY&s
289,Luxor Temple,4.8,"20,901",Archaeological site,Ancient Ruins  Monuments & Statues,25.699502,32.6390509,luxor,Archaeological site Ancient Ruins  Monuments & Statues,https://encrypted-tbn0.gstatic.com/images?q=tbn:ANd9GcQM3G9G37IyxvVeSU6mEevwIGb-HKl2EjlidX0IqKVbApCLUQ2Xkpcgfn8vaA&s
290,Karnak,4.8,"19,205",Historical landmark,Historic Sites  Ancient Ruins,25.7188346,32.6572703,luxor,Historical landmark Historic Sites  Ancient Ruins,https://encrypted-tbn0.gstatic.com/images?q=tbn:ANd9GcTusZ2pZtBKw6bx_HFLegDzx8bFJYDYXdeZ6RbQsM_SmM2JJEqizV2rOQK_ffc&s
291,Mummification Museum,4.4,584,Museum,Speciality Museums Archaeological,25.7023166,32.6398497,luxor,Museum Speciality Museums Archaeological,https://encrypted-tbn0.gstatic.com/images?q=tbn:ANd9GcTNP8qsS0aoM1zYXY4EoTZa5IFC68hdrdnI53aPyxeIt51RkiQ-lpsweAT8Azw&s
292,Ramesseum,4.7,493,Historical landmark,Ancient Ruins,25.7279952,32.6104602,luxor,Historical landmark Ancient Ruins,https://encrypted-tbn0.gstatic.com/images?q=tbn:ANd9GcRyLQUqxOBZUuYyNXnHH75S1mMLldXiTLWbOqBuppMEF8f7sykPaBCRcgPNgw&s
293,Avenue of the Rams,4.8,243,Historical landmark,Ancient Ruins  Historic Walking Areas,25.71950343,32.65619879,luxor,Historical landmark Ancient Ruins  Historic Walking Areas,https://encrypted-tbn0.gstatic.com/images?q=tbn:ANd9GcRuk16dXW4vkeJreQbSpHglhY551ybmSwwRhcXZ37jpyHXElf15DWnAtd_d3A&s
294,Medinet Habu,4.8,"3,256",Historical landmark,Ancient Ruins,25.71933341,32.6013387,luxor,Historical landmark Ancient Ruins,https://encrypted-tbn0.gstatic.com/images?q=tbn:ANd9GcR7U7SbwXyOyxSNwJHEWxxA-ncj-xHhavf6ateRbU0EArevFThCHeXL-dUTOw&s
295,First Pylon Luxor Temple,4.5,24,Historical landmark,,25.7003035,32.6396669,luxor,Historical landmark ,https://encrypted-tbn0.gstatic.com/images?q=tbn:ANd9GcQ7tbIdQyu2OfAX4tU_CDK-YRM50einjUTgj1EcaC87lXDUTIy7w_j2LyseK6w&s
296,Colossi of Memnon,4.6,"5,761",Historical landmark,Ancient Ruins  Monuments & Statues,25.7214556,32.608315,luxor,Historical landmark Ancient Ruins  Monuments & Statues,https://encrypted-tbn0.gstatic.com/images?q=tbn:ANd9GcSpboqwtXU0ROfMR_gJDOQJhDiWc68izio-hjszqn5KrMkTr8o9ZWzeF_YY2Q&s
297,Karnak Open-air Museum,4.9,31,Historical landmark,History Museums,25.7204311,32.6574777,luxor,Historical landmark History Museums,https://encrypted-tbn0.gstatic.com/images?q=tbn:ANd9GcRxhc8rBMlRcEvWIFTV9BjG0zcqgbhiJ8qk-jd_ekpe6Xgdld5MCX87tS-G3w&s
298,Valley of the Kings,4.8,"10,872",Archaeological site,,25.7401643,32.601411,luxor,Archaeological site ,https://encrypted-tbn0.gstatic.com/images?q=tbn:ANd9GcRIkB4xWFAv4oZL7ez458Y9dI_hjl0Xo_x3dbW0r7y-UvShkoA4UKsFiIBrw5c&s
299,Avenue of Sphinxes,4.9,65,Historical landmark,,25.701017,32.640525,luxor,Historical landmark ,https://encrypted-tbn0.gstatic.com/images?q=tbn:ANd9GcRWSRNkqV6LwDW67p1dLStNU-T4GHFP5Sa30X1dTWxw4xP0Ijee6UPziB-w88Y&s
300,Banana Island,4,"2,298",Park,Islands,25.68359585,32.62283521,luxor,Park Islands,https://encrypted-tbn0.gstatic.com/images?q=tbn:ANd9GcT5VSyaVo5mL6qFSkwBgQ2QhAD3pBCsDWPvEovQ4ku138vZR8n3Sa5B0UOR-ao&s
301,Abou al-Haggag Mosque,4.7,"1,352",Mosque,,25.6998692,32.6397745,luxor,Mosque ,https://encrypted-tbn0.gstatic.com/images?q=tbn:ANd9GcT2Se1fL_YoTunxiM6BA942HylTwwjvakmmdk0eQFl1EolM0luWRwwSC9PI3w&s
302,Valley of the Queens,4.6,"1,283",Historical landmark,Ancient Ruins  Cemeteries,25.7285836,32.5929219,luxor,Historical landmark Ancient Ruins  Cemeteries,https://encrypted-tbn0.gstatic.com/images?q=tbn:ANd9GcQCS72WOoKU_ACxMuQ281Y6wq3MqlLdZ2FskH-CkCZwGImUBrRyVhAXuLV3RxM&s
303,"Magic Horizon Balloons, Luxor",4.6,248,Balloon ride tour agency,Balloon Rides,25.68801,32.6323989,luxor,Balloon ride tour agency Balloon Rides,https://encrypted-tbn0.gstatic.com/images?q=tbn:ANd9GcRfdjuGs4HIa1YOz4HDtO_7Olgy5PQ3Vs899Y291KrvrPn0JmTjuK4-_26_UhM&s
304,Ramesses III Temple,4.8,156,Historical landmark,Ancient Ruins,25.71830064,32.65697979,luxor,Historical landmark Ancient Ruins,https://encrypted-tbn0.gstatic.com/images?q=tbn:ANd9GcSXsvZTd4fJFbQBr1TyBmsMEzvw7ZbVVsW5kYkaXUb2M4sucbVAG-hBMZjo_Q&s
305,Mut Temple,4.4,371,Historical landmark,Historic Sites  Ancient Ruins  Religious Sites  Monuments & Statues,25.7116622,32.6552125,luxor,Historical landmark Historic Sites  Ancient Ruins  Religious Sites  Monuments & Statues,https://encrypted-tbn0.gstatic.com/images?q=tbn:ANd9GcQsJ2vq99C1_FS40gq77YL80CohFlh6xwfYWcChp9dSwj7Ppnul65Sa0DSS1kw&s
306,Precinct of Amun-Re,4.8,263,Place of worship,,25.7178004,32.6580312,luxor,Place of worship ,https://encrypted-tbn0.gstatic.com/images?q=tbn:ANd9GcSuU_GGwlNNtNRJqZiG3ARcn-Wh3rXMMhyFpQDhF37jVYnsFr8j6nddu3t-H4A&s
307,Tombs of the Nobles,4.6,281,Historical landmark,Ancient Ruins  Cemeteries,25.7314145,32.5970227,luxor,Historical landmark Ancient Ruins  Cemeteries,https://encrypted-tbn0.gstatic.com/images?q=tbn:ANd9GcTjBVPZ8IwkbfsqnH2iCmGRvv-l_1sniJrDhpbz2HIBKRmNA05rqbO-smZtL2Y&s
308,Sound & Light,4.5,718,Historical landmark,Theatre & Performances,25.7206627,32.65337008,luxor,Historical landmark Theatre & Performances,https://encrypted-tbn0.gstatic.com/images?q=tbn:ANd9GcS21A0JvQG3G-qLtPoUZu-822w2AvwhhBcmKFz9Y2dsD833HUANz9TxwD7lOzk&s
309,Mortuary Temple of Seti I,4.6,674,Historical landmark,Ancient Ruins,25.7326654,32.6281604,luxor,Historical landmark Ancient Ruins,https://encrypted-tbn0.gstatic.com/images?q=tbn:ANd9GcS9NKPz41WZf70wkSHtjji_mFYG6o5eavpj3nAsZAmo7NPaYJ-HPXvwDb_eFF4&s
310,Deir el-Medina,4.7,501,Historical landmark,Historic Sites  Ancient Ruins,25.72809716,32.60143841,luxor,Historical landmark Historic Sites  Ancient Ruins,https://encrypted-tbn0.gstatic.com/images?q=tbn:ANd9GcS6gGX9wt07wTuNiVPdCrDnRyZnatCUFrNV0DwxYIsrgyHoVOOdcR2mnsNqqw&s
311,Hypostyle Hall,4.9,143,Historical landmark,,25.71866447,32.65781999,luxor,Historical landmark ,https://encrypted-tbn0.gstatic.com/images?q=tbn:ANd9GcRE3x6aCrABElfDaKI_f_T_Ah7iOwo4xsuor0JtxN6pyX90dt32or47T-D7Fw&s
312,Temple Of Khonsu,4.7,70,Historical landmark,Historic Sites  Ancient Ruins,25.7166038,32.65578016,luxor,Historical landmark Historic Sites  Ancient Ruins,https://encrypted-tbn0.gstatic.com/images?q=tbn:ANd9GcRFL97lEuETOElWD_1z8SkmF9fMOfa01HXVkhukt5wApmorNbkc3Jwt_VzNKYE&s
313,Mortuary Temple of Hatshepsut,4.7,"14,029",Tourist attraction,Historic Sites  Ancient Ruins  Monuments & Statues,25.7382773,32.6064906,luxor,Tourist attraction Historic Sites  Ancient Ruins  Monuments & Statues,https://encrypted-tbn0.gstatic.com/images?q=tbn:ANd9GcSzfiiD1EEEI3PX5q6ZPw9hcnR6N4N4gQEAhixlxyHArtQkWcN2Vt-o4kyqWLI&s
314,Deir el-Bahari,4.7,417,Historical landmark,Ancient Ruins  Monuments & Statues,25.7372608,32.6077347,luxor,Historical landmark Ancient Ruins  Monuments & Statues,https://encrypted-tbn0.gstatic.com/images?q=tbn:ANd9GcSOyqoSXge1IFCOv_hxAPcgRmDCAkbSLFDWbSsrWmb3d8XGR-doJyaXoj8tcA&s
315,Temple of Thutmose III,4.8,159,Historical landmark,,25.71785779,32.6595606,luxor,Historical landmark ,https://encrypted-tbn0.gstatic.com/images?q=tbn:ANd9GcQ1H6MaVzBzFxbaLn2DpZiumUKMSA1wCDDfmBQzeCSYGUY8f03wF8MGN00Iug&s
316,Mortuary Temple of Amenhotep III,4.6,"6,294",Historical landmark,,25.72143289,32.6090728,luxor,Historical landmark ,https://encrypted-tbn0.gstatic.com/images?q=tbn:ANd9GcSU8F9780E4Jx3ASEweIOp6pO8kGTmaFSUR2fdE7T0jJozS2KkSXVPgWaU-_w&s
317,Luxorstables - Nobi Arabian Horse Stables,4.6,69,Horseback riding service,Nature & Wildlife Tours  Horseback Riding Tours,25.70786982,32.63139174,luxor,Horseback riding service Nature & Wildlife Tours  Horseback Riding Tours,https://encrypted-tbn0.gstatic.com/images?q=tbn:ANd9GcRlZMsSvvu4hD8YAn717rzK9etXWU2Y2YGwTs2-7Rk-K9AeaidJO4SQSJW9qg&s
318,Luxor Fruit and Vegetable Market,4,972,Fruit and vegetable store,Flea & Street Markets  Farmers Markets,25.6978564,32.64615,luxor,Fruit and vegetable store Flea & Street Markets  Farmers Markets,https://encrypted-tbn0.gstatic.com/images?q=tbn:ANd9GcQxWKl7LH0UIzUCKIa860OALoOHtXW3O-0hzPOevLQYPTOjGYwHGNjBslL1-mA&s
319,King Tut Balloons,4.8,29,Balloon ride tour agency,Balloon Rides  Private Tours,25.6832671,32.6338552,luxor,Balloon ride tour agency Balloon Rides  Private Tours,https://encrypted-tbn0.gstatic.com/images?q=tbn:ANd9GcSJ2WO8_3bV0-pJaGbmbmheXZDjfjxNGDJbNGNi4ridtgO9WR7li5b4oAd_mA&s
320,First Pylon,4.8,68,Historical landmark,,25.71929571,32.65691857,luxor,Historical landmark ,https://encrypted-tbn0.gstatic.com/images?q=tbn:ANd9GcT8pfnGON_cEbYhXGlldwGocBAzLypjbxurhZI6oFhvAg1nMCqRemmZAnAAjw&s
321,Wadi El Rayan Fayoum Fall,4.3,1611,Waterfalls,Waterfalls,29.1908915,30.4011911,fayoum,Waterfalls Waterfalls,https://encrypted-tbn0.gstatic.com/images?q=tbn:ANd9GcQKXAYDuXR2gvNcJ3b6HcVcwaxtyHVfoWnIk9qVX0q0zymF3X2WnfCeW5XQDQ&s
322,Fayoum Oasis,4,76,Oasis,City Tours  Cultural Tours  Climbing Tours  Day Trips,29.453611,30.580833,fayoum,Oasis City Tours  Cultural Tours  Climbing Tours  Day Trips,https://encrypted-tbn0.gstatic.com/images?q=tbn:ANd9GcQgOy47GMXjk8LGSlB-cIuk_LF3N62Ljoar9QczCwV8dZBSJmRNc94o2jy9c4I&s
323,The Pyramid of Sneferu,4.5,14,Points of Interest & Landmarks,,29.8085947,31.2066131,fayoum,Points of Interest & Landmarks ,https://encrypted-tbn0.gstatic.com/images?q=tbn:ANd9GcQgL4mv10B86IyKJ17smENi6bDrY-JmNZVsv_HwlHVV0aJJLamM52m5EePWa8o&s
324,Waterwheels in Al Faiyum,3.5,25,Points of Interest & Landmarks,Points of Interest & Landmarks,29.453611,30.580833,fayoum,Points of Interest & Landmarks Points of Interest & Landmarks,https://encrypted-tbn0.gstatic.com/images?q=tbn:ANd9GcRHB2c0m5pRk3jZvEkNf5C7UxskLf4Rym9YkMR12OkUfhb9hvf4MNXykejh8FY&s
325,Pyramids of El Fayoum,4.5,3,Monuments & Statues,Monuments & Statues,29.3084021,30.8428497,fayoum,Monuments & Statues Monuments & Statues,https://encrypted-tbn0.gstatic.com/images?q=tbn:ANd9GcTCOHnORn_fkRbdSk-cmynwND0KqcvRQTxBN0zU7zevqUTAcYIHHJZIhyEIl9w&s
326,Fayoum Art Center,4,8,Art Gallery,Art Galleries  Art Museums,29.39912209,30.48958566,fayoum,Art Gallery Art Galleries  Art Museums,https://encrypted-tbn0.gstatic.com/images?q=tbn:ANd9GcSDNgSXWoZZyf9bsPJOwfAbhRQIsktvfERgjfbGgVZLHrS9aXQGwZbRei9tQVs&s
327,Karanis,4,9,Ancient Ruins,Ancient Ruins,29.51873041,30.90329313,fayoum,Ancient Ruins Ancient Ruins,https://encrypted-tbn0.gstatic.com/images?q=tbn:ANd9GcRu5PivcJGbEG0l5YQsc4sa2vMpo2aHo-3o5FaYMzXma3A1Iw9qj4gRKuJr-Q&s
328,Kom Aushim Museum,4.1,120,Museum,History Musems,29.5185688,30.8977976,fayoum,Museum History Musems,https://encrypted-tbn0.gstatic.com/images?q=tbn:ANd9GcTDl5D6lNm_mBefw2pDKV-uSfodVuDRB3FutA4aRYeHrgLesQhlqpgVXT4lFA&s
329,Al Sultan Qaitbay Mosque,4.7,268,Mosque,,30.0474933,31.2600435,fayoum,Mosque ,https://encrypted-tbn0.gstatic.com/images?q=tbn:ANd9GcScjBPjsksqDAh2vhoZBryzn5ztsifJigz58AaqPF0fmqcWDl7nOx9-VD7ER88&s
330,Qasr Qaroun Temple,4.2,468,Historical landmark,,29.4056751,30.4183155,fayoum,Historical landmark ,https://encrypted-tbn0.gstatic.com/images?q=tbn:ANd9GcTWoNl5StbVaQp61aAiB0Zi0u48Iu9V_1oBUmQpKGUrIocYkDM_kQkiD_JXdDM&s
331,Magic lake camp,4.4,58,Campground,,29.1614876,30.3409296,fayoum,Campground ,https://encrypted-tbn0.gstatic.com/images?q=tbn:ANd9GcQ0zvB9NYIzveEZEvZCkJ8j9LNOj_98lov_LEf3vRo_mTqOqA8Ed4JDBzVTbqQ&s
332,Citadel of Qaitbay,4.4,37071,Fortress,15th-century fortress & naval museum,31.214011,29.8856383,alexandria,Fortress 15th-century fortress & naval museum,https://encrypted-tbn0.gstatic.com/images?q=tbn:ANd9GcSL_JdjbMcZBSmpsn9GGM-yfMXCeIyz58zpU-AjaMtpoRlbPAQNxGmrKPoJFt4&s
333,Montaza Palace,4.5,15723,Palace,1932 ornate palace & extensive gardens,31.2884954,30.0159692,alexandria,Palace 1932 ornate palace & extensive gardens,https://encrypted-tbn0.gstatic.com/images?q=tbn:ANd9GcSywbVp91OLxu0BsPUX_SDsTbSksS8NryghFDdKZ2QkLRqNV0AZdqaVIPRXLMA&s
334,Bibliotheca Alexandrina,4.6,6221,Library,Landmark contemporary library complex,31.2088705,29.9092012,alexandria,Library Landmark contemporary library complex,https://encrypted-tbn0.gstatic.com/images?q=tbn:ANd9GcT5R4EUIDOy2hMs4GcNfcajQY3vt9HDryozbLmm2l01JmaLYy33LiWY16uaUUU&s
335,Serapeum of Alexandria,4.3,6206,Temple,Iconic Roman-era granite column,31.18259441,29.89626574,alexandria,Temple Iconic Roman-era granite column,https://encrypted-tbn0.gstatic.com/images?q=tbn:ANd9GcQVtol74cIEMthCN-rSpjfgv-CD9xVSzFtoy9rvuuEOUXrkJ3B7175DMyzY0wA&s
336,Sidi Morsi Abu al-Abbas Mosque,4.6,2753,Mosque,"Large, architecturally notable mosque Religious Sites",31.2055367,29.8823048,alexandria,"Mosque Large, architecturally notable mosque Religious Sites",https://encrypted-tbn0.gstatic.com/images?q=tbn:ANd9GcRyJJYUd8ua7P8NFxGdby7KkhVPWh_UZOKLDZlzyDGaMiWe_I4QeGsZV8s4Lw&s
337,Catacombs of Kom el Shoqafa,4.5,3187,archaeological site,Burial chambers from the 2nd century,31.1787378,29.8930706,alexandria,archaeological site Burial chambers from the 2nd century,https://encrypted-tbn0.gstatic.com/images?q=tbn:ANd9GcThF2qn7L0SJRMml8t4fsfllI0YZY8u6FuE6Zq_CzDS5CqX_cVb7OgRC0HPzQ&s
338,Alexandria National Museum,4.4,2185,Museum,Egyptian history in an Italianate palace,31.2007415,29.9131977,alexandria,Museum Egyptian history in an Italianate palace,https://encrypted-tbn0.gstatic.com/images?q=tbn:ANd9GcQUywV-aQClb6nclEq46xE0xoovMO7bC5AnlT786iuq2ySjkRV9q7z2CUX_FQY&s
339,Royal Jewelry Museum,4.6,6247,Museum,Collections from Muhammad Ali dynasty,31.2406096,29.9632848,alexandria,Museum Collections from Muhammad Ali dynasty,https://encrypted-tbn0.gstatic.com/images?q=tbn:ANd9GcQdyFcIg1Kq61yj5irBwiN3p9F1EEKBy8HLOmBAsHuUnPFWWtSgpTsuCL_bDQ&s
340,Ancient Roman Theatre,4.4,4894,Theatre,Ruins of a Roman theater & villa,31.19487502,29.90403583,alexandria,Theatre Ruins of a Roman theater & villa,https://encrypted-tbn0.gstatic.com/images?q=tbn:ANd9GcQMxalNa7hP9P_B4zFCQak9xDFmptutVYfn4jU1uuVPoA8hEl27LDgJfztqgQ&s
341,Stanley Bridge,4.6,31926,Bridge,Landmark Arab-style bay crossing,31.2352292,29.94864161,alexandria,Bridge Landmark Arab-style bay crossing,https://encrypted-tbn0.gstatic.com/images?q=tbn:ANd9GcTv83yYrSE45HftIEPCuh9rZfpJqg8SD8NRiS2qMh6gh8ufGmtJ23NA4RGoS9U&s
342,Cavafy Museum,4.3,553,Museum,Former home of a well-known Greek poet,31.1975855,29.9012432,alexandria,Museum Former home of a well-known Greek poet,https://encrypted-tbn0.gstatic.com/images?q=tbn:ANd9GcThT0QPQaQO0QCCDAsxZ4n4GgsboIks3_sCI1s5hEypSCtfT7vEzaCSDBnPq78&s
343,El Mamurah Beach,4.2,12013,Beach,Lively spot with cafes & a promenade,31.2908176,30.0306679,alexandria,Beach Lively spot with cafes & a promenade,https://encrypted-tbn0.gstatic.com/images?q=tbn:ANd9GcTsWEIBY1nrGJZOawba_X6nRvgjSlP3ZyZrdqeDh-_1BDepG2CZ9UCxN_34TCM&s
344,Mahmoud Said Museum,4.5,193,Museum,,31.24439,29.9690143,alexandria,Museum ,https://encrypted-tbn0.gstatic.com/images?q=tbn:ANd9GcTcnQmc8IogPEBNgs8XNACVpbCrk_3xLJ9tkJdMb4AVrgSVzsKvkxC_EAEQaQ&s
345,The Cathedral of St. Mark,4.8,2765,Church,Iconic Coptic church on an ancient site Religious Sites Christinaity,31.1983817,29.8995655,alexandria,Church Iconic Coptic church on an ancient site Religious Sites Christinaity,https://encrypted-tbn0.gstatic.com/images?q=tbn:ANd9GcT0pvmrCOHyetTJ9TtjWQAY6IsjAnhHg7X_p6dCiM6bR-otAxX7yprkYE97-g&s
346,Greco-Roman Museum,3.9,459,Museum,HIstory Mummies & other archaeological objects,31.199182,29.9065953,alexandria,Museum HIstory Mummies & other archaeological objects,https://encrypted-tbn0.gstatic.com/images?q=tbn:ANd9GcQHn63Ryr8eKbXShVk7yv5va3dGTIc2XKrITYjd8f7QHZnu2ypY0DAzpYgsgjo&s
347,Alexandria Naval Unknown Soldier Memorial,4.3,14254,Monument,,31.1999988,29.8937569,alexandria,Monument ,https://encrypted-tbn0.gstatic.com/images?q=tbn:ANd9GcSzNeHd9q2-IiXS6UdXaGtRBONllThy-u9W5ZF1dcfPTnKMHI2Ez0KjmhpShzM&s
348,Corniche Alexandria,4.6,403,Waterfront promenade,dating from 1870,31.20974168,29.90762047,alexandria,Waterfront promenade dating from 1870,https://encrypted-tbn0.gstatic.com/images?q=tbn:ANd9GcRtp-0zU0Ax1y4tiz_4_0oynAK7XhK1v3oEfikhiIoqmmaqrR4fhn5lfxE4HQ&s
349,Al Qaaed Ibrahim Basha Mosque,4.7,3559,Mosque,Religious Sites,31.2031434,29.9038373,alexandria,Mosque Religious Sites,https://encrypted-tbn0.gstatic.com/images?q=tbn:ANd9GcT_h4DIQh095ylAkn1o7ss4W364vgzLvwINUeDbGMbbiWbL61RnCfzGVNEpjg&s
350,El Montazah Park,4.1,98,Park,,31.2850062,30.0259124,alexandria,Park ,https://encrypted-tbn0.gstatic.com/images?q=tbn:ANd9GcSaTfllvihV-uhDMlyfQEj6U673czvGGIcQGli5YeUuCHhWGKsBKDAkU4BeXoI&s
351,Kom el Dikka,4.3,125,archaeological site,,31.197497,29.9089976,alexandria,archaeological site ,https://encrypted-tbn0.gstatic.com/images?q=tbn:ANd9GcTOe0fBEf8teB1hg1mAyvYN83deMd28JU9OeFDcIkOtKr40Ii6nImSD53z3Ruo&s
352,Elmontaza Garden,4.5,3171,Garden,Palace grounds with flowerbeds & beaches,31.2839501,30.0162112,alexandria,Garden Palace grounds with flowerbeds & beaches,https://encrypted-tbn0.gstatic.com/images?q=tbn:ANd9GcTLoDMkolObXt8zQEXp_tNIotGgXdB1Cd00v1nDIMJiboveZUB1tGnToEUj27E&s
353,El Nabi Daniel Mosque,4.5,1699,Mosque,Religious Sites,31.194923,29.9023409,alexandria,Mosque Religious Sites,https://encrypted-tbn0.gstatic.com/images?q=tbn:ANd9GcRGjWPz-HPfTGcAqMifpClPwJFzbrJMDWVBxwoskV9Ud6wiF8sp-D33UgiTs6w&s
354,Alexandria Corniche,4.6,1552,Beach,,31.2095857,29.9076312,alexandria,Beach ,https://encrypted-tbn0.gstatic.com/images?q=tbn:ANd9GcSnKK2cstEwHJc-byHZF8FGgqPqGzTTZl8WqMu4x5e--SuxSyz42Wj49EmSG3s&s
355,Mohamed Ali Pasha Statue,4.3,3371,Statue,,31.1973785,29.8928748,alexandria,Statue ,https://encrypted-tbn0.gstatic.com/images?q=tbn:ANd9GcS3Ip04JWEM8rB3l7GEm5oTICCpCdUZ_6Kzuiw-Tit4vxr4GhrzQeukVqgDdUU&s
356,Montazah Beach,4.6,743,Beach,,31.29302559,30.02033992,alexandria,Beach ,https://encrypted-tbn0.gstatic.com/images?q=tbn:ANd9GcQZ0EJz2maAyk55wVwVgWwV1bx58xOGNy_r9waVcnKwkf8QqstwmjRdKdhztBk&s
357,St. Takla Church,4.4,810,Church,church and christianity Historic sites Religious Sites,31.21073097,29.92628385,alexandria,Church church and christianity Historic sites Religious Sites,https://encrypted-tbn0.gstatic.com/images?q=tbn:ANd9GcS64B_lDVa8nni1dyLIIX5Vn_ueISDGG_KpkBovmJl1KWbKkuEovLg_TPlV_N8&s
358,Alexandria Aquarium,4.2,1237,Aquarium,museum & research center,31.2128324,29.8849972,alexandria,Aquarium museum & research center,https://encrypted-tbn0.gstatic.com/images?q=tbn:ANd9GcSa0e_zglFmizFqC4vOm6Et9VFbXjGCNMxPKBcWZMU4rk72vk5XdYSa6_Wp--U&s
359,Museum of Fine Arts,4.4,417,Museum,Art Museum,31.19534671,29.91343744,alexandria,Museum Art Museum,https://encrypted-tbn0.gstatic.com/images?q=tbn:ANd9GcSJx50z9Zttt8UW2kThclWX_0zqNzVYkctGV_jnzgyIvl2LVSB1OHUCTCgR3t8&s
360,Saint Catherine Cathedral,4.6,521,Church,"Cathedral, architecture, church and history Religious Sites Christinaity",31.1947099,29.894522,alexandria,"Church Cathedral, architecture, church and history Religious Sites Christinaity",https://encrypted-tbn0.gstatic.com/images?q=tbn:ANd9GcRlg_cpyG49yZbCn80XYyCupO9noXDOGOD8AtnVb1au5510rsHDaiUxDIydgF0&s
361,Sir. Allenby Garden,4.4,800,Garden,park,31.2252098,29.9554437,alexandria,Garden park,https://encrypted-tbn0.gstatic.com/images?q=tbn:ANd9GcSAsMWHW_ClnSQStJfbqQu3V9s2SD3YbdLay3EYGLIV8UsIWIWJeM3l4GzA0Q&s
362,Planetarium Science Center (PSC),4.6,276,Planetarium,Space & IMAX movies in a dome theater,31.2089757,29.908139,alexandria,Planetarium Space & IMAX movies in a dome theater,https://encrypted-tbn0.gstatic.com/images?q=tbn:ANd9GcTX3AzBS0XWTzAR9NoCnVkTXcAv-AZ3R4c1OgoIK4G46Ed5fhxyzBRyNcYRSg&s
363,Elharamlik Palace,4.5,179,Palace,,31.28852082,30.01638469,alexandria,Palace ,https://encrypted-tbn0.gstatic.com/images?q=tbn:ANd9GcQOdGGOQC-JML0ZB52cyHTXB4niB4XKtdLMYKavpcN2Ow9v0ld6sWwBhBA9kQ&s
364,Tea island,4.4,406,island,,31.29205481,30.02115519,alexandria,island ,https://encrypted-tbn0.gstatic.com/images?q=tbn:ANd9GcTeeOuFdG1PrEeKqbHNBGJRSis7i0dngzXx6OZrCxkNNufGfYevySsATvB9Cms&s
365,Princess Aziza Fahmy's Palace,4.3,557,History,,31.2420139,29.9613701,alexandria,History ,https://encrypted-tbn0.gstatic.com/images?q=tbn:ANd9GcShIGoyNzsVC9QuMjxIV1njZy__e_VKncZ66Jxm9jYL_vh8NN4YGrwltwd1DA&s
366,Montazah Aida Beach,4.5,190,Beach,,30.8351558,29.233206,alexandria,Beach ,https://encrypted-tbn0.gstatic.com/images?q=tbn:ANd9GcTDZhVMdIzjOpz28KJrFln9-zl4Y3b7xbgo90qf2wVXGixg6FcRD_J_NUIIGg&s
367,El Attarine mosque,4.6,143,Mosque,Religious Sites,31.1952116,29.8989901,alexandria,Mosque Religious Sites,https://encrypted-tbn0.gstatic.com/images?q=tbn:ANd9GcRKbDoeWrBn13iaeNDuTf5d1vNCOzrpzRKwNWFg_UcxL4wZU6-1_FmONvdQuw&s
368,Antoniades Palace,4.1,395,Palace,History,31.2022828,29.9507256,alexandria,Palace History,https://encrypted-tbn0.gstatic.com/images?q=tbn:ANd9GcRnnz-gi2PIOLr1-iyJ1uYNSVEnwajBjRTGC5fhc_cTyzctxtclO7ZGRq1uPA&s
369,Tolip Beach,4,1866,Beach,,31.2431734,29.9614991,alexandria,Beach ,https://encrypted-tbn0.gstatic.com/images?q=tbn:ANd9GcRQ4cRJkXFR_ZqwXpq68LpD3UghyuwFzt5Fe-P44nkXyhh3t7yOOJd-4IPq9eI&s
370,Sky Yacht Club,4.2,471,Beach,,31.2897868,30.0246979,alexandria,Beach ,https://encrypted-tbn0.gstatic.com/images?q=tbn:ANd9GcTC_XoYPJKRyYDoe-HQiJQCVk07xZ17KnHVxdn-Sqxvt7K5mcjsj6cWHs6g3VM&s
371,kouta park,4,5907,Park,,31.2846849,30.0340303,alexandria,Park ,https://encrypted-tbn0.gstatic.com/images?q=tbn:ANd9GcR1O2u5-Z3lMy8D8eqT6QkU3Q7qbK-7D6bZyzuMENAEK1FjEdMGrQrlbboIuVw&s
372,Stanli Beach,4.3,511,Beach,,31.2338889,29.9458333,alexandria,Beach ,https://encrypted-tbn0.gstatic.com/images?q=tbn:ANd9GcRQYqXCZnDDTcfDmhP6zr4TgFLd-nwFeyeKl_LyxukPJFCbJsQ4KcDHfNYq2A&s
373,Ras Soda Temple,4.1,126,Temple,,31.2032367,29.9187628,alexandria,Temple ,https://encrypted-tbn0.gstatic.com/images?q=tbn:ANd9GcQiSXkYsF4cz53xBq1SjuZB4gl_vRub3HTzLj0teXHTd6r5i4iC7u4jf3T9fw&s
374,Mustafa Kamel Hellenistic Necropolis,4.2,53,History,,31.2307362,29.9476039,alexandria,History ,https://encrypted-tbn0.gstatic.com/images?q=tbn:ANd9GcTNNYHalWK9HcnIEgmryV-Z7b4gmpPT-wb-mwLi8t3ocau-rSeRO2_40z_15g&s
375,Glime Beach,3.7,906,Beach,,31.2411182,29.9594619,alexandria,Beach ,https://encrypted-tbn0.gstatic.com/images?q=tbn:ANd9GcSQXp_7S7Y92z8o7V1KOKd1iuzDhfALcXvcruSfZhN1VFLHONDy0xg9iZbuDJI&s
376,Arabic Calligraphy Museum,4.2,36,Museum,,31.1950882,29.9130973,alexandria,Museum ,https://encrypted-tbn0.gstatic.com/images?q=tbn:ANd9GcSXDMHiJxZpSp8N3Lkp1K5Shj2aYJx9c3oMQyZfPRFEAiqNog-0HnGaG1Vl5A&s
377,Cleopatra Beach,4,37,Beach,,36.5533266,31.9728367,alexandria,Beach ,https://encrypted-tbn0.gstatic.com/images?q=tbn:ANd9GcTsPE1VAYCUm4Xrai1iIcGdFsY-NBDEnKwR1WarA1QkhpTiz_CDCbLRQDIwfbA&s
378,Eliahu Hanavi Synagogue,3.9,148,Synagogue,"judaism, history and architecture Religious Sites",31.1992053,29.9003701,alexandria,"Synagogue judaism, history and architecture Religious Sites",https://encrypted-tbn0.gstatic.com/images?q=tbn:ANd9GcSy-IpC2sRbDiezvPPwULQY5MFEnSz4MMmVV_yRkVxaoP4KIL_p7fmPRCI2Qw&s
379,San Stifanu Beach,4.3,30,Beach,,31.2480556,29.9652778,alexandria,Beach ,https://encrypted-tbn0.gstatic.com/images?q=tbn:ANd9GcRb6hqLhVDap6TByClwhoSg1ACtsvODplmVwV0vC2ISmxBRk1XmrqI8sOw-YQ&s
380,Sh??i' al Anf?sh?,4.3,116,Beach,,31.2088514,29.8826219,alexandria,Beach ,NULL
381,Magic Planet City Centre Alexandria,4.4,183,Park,Amusment Park theme,31.1659103,29.9325205,alexandria,Park Amusment Park theme,https://encrypted-tbn0.gstatic.com/images?q=tbn:ANd9GcSgJ4n-eqfwBSFNMkt6AbweNOh5sOEx0oYFfHkmghtJkPdP6BIjStp_fbBbkhI&s
382,Keluobatra Beath,4.4,128,Beach,,36.5533266,31.9728367,alexandria,Beach ,https://encrypted-tbn0.gstatic.com/images?q=tbn:ANd9GcQJwY61XO1_ogJGVLG3GsYoRbf9TCMciuCQxLucFF93kRec1yWhV0VB8gb7TA&s
383,El Montazah Beach,4.3,130,Beach,,31.2823398,30.011602,alexandria,Beach ,https://encrypted-tbn0.gstatic.com/images?q=tbn:ANd9GcQx_Y8uD85z0ZpMMxFMoVt74yy96-YaTkEok4_LKfqN3eVYENEnmqa7yYKEnR0&s
384,Antoniades Garden's,3.9,2041,Garden,Green space with palms & sculptures,31.2056765,29.9469988,alexandria,Garden Green space with palms & sculptures,https://encrypted-tbn0.gstatic.com/images?q=tbn:ANd9GcQ89eDqsZndZqVOqORgJELDv3A26duJdHywHcQcbDUTEEGg_TMEBgwxqNGjhxo&s
385,San Dtephano Beach,4.4,35,Beach,,31.24415542,29.96296636,alexandria,Beach ,https://encrypted-tbn0.gstatic.com/images?q=tbn:ANd9GcSOaKgW5XFq0cFSUWcyWqUHeOqZOSMFEp0RFDdpzDX3IRw6qSwsvvDYtvEqWj0&s
386,Al Ibrahimiyyah Beach,4.3,19,Beach,,31.2172222,29.9241667,alexandria,Beach ,https://encrypted-tbn0.gstatic.com/images?q=tbn:ANd9GcQG0tOBiX7YR6PP01isQf_Z0NpREHiV3z2OELdJlQCVZJpBmjLtm6nVn0KH48I&s
387,Stanley Beach,4.2,38,Beach,,31.23399423,29.94585424,alexandria,Beach ,https://encrypted-tbn0.gstatic.com/images?q=tbn:ANd9GcRQYqXCZnDDTcfDmhP6zr4TgFLd-nwFeyeKl_LyxukPJFCbJsQ4KcDHfNYq2A&s
388,Taverna Aqua City,3.9,14,Park,Garden,31.2448042,30.0016946,alexandria,Park Garden,https://encrypted-tbn0.gstatic.com/images?q=tbn:ANd9GcQPjkjN4WXysb10R2tCvGdcyLHQ-tGXABCdsnQ3pxoBuTkk93dUm9mXNLhI6uU&s
389,National Maritime Museum,3.8,77,Museum,Marine,31.23646398,29.95113037,alexandria,Museum Marine,https://encrypted-tbn0.gstatic.com/images?q=tbn:ANd9GcRVJZiqVIUVRleawsUvFAKuL_1UjEVTuZ9ZMGWAlOrYYN9kFZLujPwUd02vgw&s
390,El Nozha Park,3.8,199,Park,Garden,31.2030352,29.9438198,alexandria,Park Garden,https://encrypted-tbn0.gstatic.com/images?q=tbn:ANd9GcQUyPzsjuL_Tf7zaf6UV2xEYJtKHaTercM2KOrH00WB5vDt5l-b1i0kQNG69u0&s
391,Teachers' Club Beach,3.6,70,Beach,,31.2313317,29.94357786,alexandria,Beach ,https://encrypted-tbn0.gstatic.com/images?q=tbn:ANd9GcS2874nSpSdFos7icZPriIZ7ca5P5k2DYBpy3L6PY5IHV5Hv3Cnav1Y0C_IDQ&s
392,Al Shalalat Park,3.8,4503,Park,Palm-lined footpaths & city wall ruins,31.2026889,29.914543,alexandria,Park Palm-lined footpaths & city wall ruins,https://encrypted-tbn0.gstatic.com/images?q=tbn:ANd9GcQ5F2_S4fr6ndUVKATVo91QYTH-Fd2FQDI6c9AmpDb-uTMQ7BHNxHd0iVwkE5g&s
393,El Alamein War Cemetery - British,4.5,68,Military cemetery,,30.8372144,28.9467165,alexandria,Military cemetery ,https://encrypted-tbn0.gstatic.com/images?q=tbn:ANd9GcRSDtvGsoZCcXd12Lozuo3IecD5NGT2GyybiFwMof1u5AJV33oEU-CQnpYyK80&s
394,Beach Hotel Rose Asafra,3.8,2969,Beach,"Swimming, seafront cafes & sunset views public",31.275447,30.0019763,alexandria,"Beach Swimming, seafront cafes & sunset views public",https://encrypted-tbn0.gstatic.com/images?q=tbn:ANd9GcSvulHkoDCtNakWOzaRyc6WTEKjI5ij8DYWF3TfAojG-H3THCgH9RRzDB3opA&s
395,International park Alexandria,3.7,720,Park,Garden,31.1784768,29.930292,alexandria,Park Garden,https://encrypted-tbn0.gstatic.com/images?q=tbn:ANd9GcSsCsxrCIIlCKOuBTD2xj8r4YiVtR8el3h29_pPmKzjVE6g6H0-CWd9oj2tuJY&s
396,Nelson's Island,4.3,95,island,,31.3578332,30.1058765,alexandria,island ,https://encrypted-tbn0.gstatic.com/images?q=tbn:ANd9GcTEgJN6vvuhNaUwop3ZvT_aW7QYlHDYOvB9BHNq5N-tlbUGwi82y9a0htzA1dk&s
397,Honey Moon Beach,4.3,247,Beach,,31.13698256,29.78160044,alexandria,Beach ,https://encrypted-tbn0.gstatic.com/images?q=tbn:ANd9GcTNBnjyVFj1oBRclL6JgdyLH4JpPLIv05pFRuFF-EvM9V5qUKtbAOrVZ7uDi4c&s
398,Elbeytash Beach,4,128,Beach,,31.13240911,29.77865418,alexandria,Beach ,https://encrypted-tbn0.gstatic.com/images?q=tbn:ANd9GcT_NoPPJV6aT3byTqzdl2H96fPCT-i3Y4Aq1A19AWR1Cs_HkuGJX1htpfYLYkQ&s
399,Abu Qir Bay,4.6,26,Bay,"Ancient history, ruins, archaeological excavation and ancient egypt",31.3,30.166667,alexandria,"Bay Ancient history, ruins, archaeological excavation and ancient egypt",https://encrypted-tbn0.gstatic.com/images?q=tbn:ANd9GcTgWMJ6momF5WErx9TuRAkqBbPSc4swF4_OiHGoG_lc1LIPDmlWRHAl-rXy-g&s
400,Alexandria Zoo,3.6,11603,Zoo,"Lions, reptiles & a variety of birds",31.2048453,29.94356434,alexandria,"Zoo Lions, reptiles & a variety of birds",https://encrypted-tbn0.gstatic.com/images?q=tbn:ANd9GcRR8cvhlhwK5cHFXuFKwja0LNFkYsmAHtQkKha0FXgKaBRVrx2FhGoZmCs9Og&s
401,Hurghada Grand Aquarium,4.3,"7,948",Tourist attraction,,27.1343995,33.821875,hurghada,Tourist attraction ,https://encrypted-tbn0.gstatic.com/images?q=tbn:ANd9GcQ8gpVwVUmK_PdpcNuqz_dGDJ6QQqFXNxJ3St1gFKVJuYSEIqcvL4fIsRGBVQ&s
402,Mini Egypt Park,4.4,990,Tourist attraction,Speciality Museums  Points of Interest & Landmarks,26.9876208,33.8562656,hurghada,Tourist attraction Speciality Museums  Points of Interest & Landmarks,https://encrypted-tbn0.gstatic.com/images?q=tbn:ANd9GcQS_II8EdQEzFjyPFGAMu2mB96Il_n9ldWblFqH1VwRrObXwvNE_bCOfuQWW00&s
403,Sand City Hurghada,4.3,"2,069",Tourist attraction,,27.099592,33.8230867,hurghada,Tourist attraction ,https://encrypted-tbn0.gstatic.com/images?q=tbn:ANd9GcTSIC-_Hl0eo0oBaR9TeSw4PIR6VK_3qy94mJC4Q_LVz9hMISBZNSSrzHqOFyw&s
404,ALmamsha park,4.3,"2,486",Tourist attraction,,27.190213,33.8324792,hurghada,Tourist attraction ,https://encrypted-tbn0.gstatic.com/images?q=tbn:ANd9GcSWCIClvpWHGrfFFDy_PfG9-WriJqzmkiUuFZeydjbLymPIA1OAi3UizdT-7Dw&s
405,Hurghada Marine Museum & Aquarium,4.3,155,Tourist attraction,,27.2836341,33.7722238,hurghada,Tourist attraction ,https://encrypted-tbn0.gstatic.com/images?q=tbn:ANd9GcQjXOLqzZSBa2vcapOjRj0l1XFMIMLpaYsH60KlIkIYwZpIRKyb5wX8EVy4x5o&s
406,"Sliders Cable Park - El Gouna, Egypt",4.5,779,Tourist attraction,water park,27.3772722,33.6608179,hurghada,Tourist attraction water park,https://encrypted-tbn0.gstatic.com/images?q=tbn:ANd9GcTb6vOD254xvFUT3Wpqn1myhS-0UNIGDE-RFfUpr3C66qs5V6TRudXePqzBkUg&s
407,Monument to the martyrs of the Battle of Shidwan Island,4.4,163,Park,memorial park,27.505226,33.982086,hurghada,Park memorial park,https://encrypted-tbn0.gstatic.com/images?q=tbn:ANd9GcRs3o9LJ_CD-Jj_jPOjrShHG2SE7Dyoz49xItWQ-4zwQ-XWnnp1z7n13reV5_w&s
408,Makadi Water World,4.6,36,Park,water park,26.9824965,33.8728898,hurghada,Park water park,https://encrypted-tbn0.gstatic.com/images?q=tbn:ANd9GcRyj9jrgD_hnqgPCtl4toh3fVBBSMmH8OjmvZhS3sRqqn4DTxolILw3XXUDZEo&s
409,Hurghada Museum,4.4,678,Museum,,27.1605512,33.8214559,hurghada,Museum ,https://encrypted-tbn0.gstatic.com/images?q=tbn:ANd9GcTfNK96FgDLx8TFs_1ugCLQs-y47dB3WE9Bq4-nDV5y9dfCyfVNcUaFykZKeek&s
410,Senzo Mall,4.4,"19,324",Shopping mall,Shopping mall,27.0955375,33.8219067,hurghada,Shopping mall Shopping mall,https://encrypted-tbn0.gstatic.com/images?q=tbn:ANd9GcSa_p-O3aTqqS0id5I34YNTg7HTQh6xl7kfUxKJJz8r2HnMD3z64u7Q7TnetfE&s
411,Steg Pharao Azur Resort,4.2,23,Tourist attraction,,27.0872124,33.8479519,hurghada,Tourist attraction ,https://encrypted-tbn0.gstatic.com/images?q=tbn:ANd9GcSqLSAjPNIYrXfz9W_IBxd2oyklmepIJi2xvEzRFcTw83lBwGfomm8XQlkIG7I&s
412,ponorka Sindbad,4.4,47,Tourist attraction,,27.17321419,33.85306072,hurghada,Tourist attraction ,https://encrypted-tbn0.gstatic.com/images?q=tbn:ANd9GcQh8J9cyGOTupCxbbgaBWLgcqVO1KyiHv29MPOhgCD0NfqWcnyNpPxFDf8H-5c&s
413,Forest Tree,4,33,National forest,,27.3077062,33.7198547,hurghada,National forest ,https://encrypted-tbn0.gstatic.com/images?q=tbn:ANd9GcQJeLRI_m_-FfNLw2AICywGYqpH9BTrfdwlZUnx5SdZfs1Fibb96e3urwDcrQ&s
414,Sindbad Aqua Park,4.5,31,Park,water,27.190213,33.8324792,hurghada,Park water,https://encrypted-tbn0.gstatic.com/images?q=tbn:ANd9GcSIaJhxuFqdEILmmiprk8zZFwLHw4vH2AOa1UA_ODgmQc7o1vYx2m8T59fAFY4&s
415,Paradise Beach,4.5,"5,909",Tourist attraction,Beaches,27.1814387,33.9539221,hurghada,Tourist attraction Beaches,https://encrypted-tbn0.gstatic.com/images?q=tbn:ANd9GcTSTp1O-YTTjTyvNRuFuH_D600cvDwVwAW2jWKP7UfcCFo_3pRNhCBIHzXjGw&s
416,Orange Bay,4.4,"7,488",Tourist attraction,Parasailing & Paragliding  Safaris  Adrenaline & Extreme Tours  Swim with Dolphins  Boat Tours  Waterskiing & Jetskiing  Fishing Charters & Tours  Speed Boats Tours  Day Trips,27.2083739,33.9265071,hurghada,Tourist attraction Parasailing & Paragliding  Safaris  Adrenaline & Extreme Tours  Swim with Dolphins  Boat Tours  Waterskiing & Jetskiing  Fishing Charters & Tours  Speed Boats Tours  Day Trips,https://encrypted-tbn0.gstatic.com/images?q=tbn:ANd9GcQidST3XKGulqnXh3CXWRZID2Pk3uY3n8Xk80-h8A6Lwb5uPCrO8BZEunDDVqs&s
417,Submarine adventures - Hurghada,4.5,"11,127",Boat tour agency,,27.2239061,33.8409421,hurghada,Boat tour agency ,https://encrypted-tbn0.gstatic.com/images?q=tbn:ANd9GcR01FCsVhCEXpv1D98cW1h29lJvJphjSTCe-rOagn0jMfuZNDvDlFzmdqJ0Ajw&s
418,Sherry.St.,4.3,"2,598",Park,,27.22023501,33.83600504,hurghada,Park ,https://encrypted-tbn0.gstatic.com/images?q=tbn:ANd9GcTbH9qkYreEgXy0SejJK9LuLfdBpdep0t61gDDdCn77BRZavhTh429Ob740vw&s
419,Sindbad Submarines,4.5,786,Boat tour agency,Submarine Tours,27.1870198,33.8349315,hurghada,Boat tour agency Submarine Tours,https://encrypted-tbn0.gstatic.com/images?q=tbn:ANd9GcTHcjLmdK5l3pHc7-5Dv-6AYuGWSlWsyyE4mPm3Zt4UDby_ayIx8LoL6LT1Cw&s
420,Davinci Beach,4.6,14,Recreation center,,27.257896,33.811607,hurghada,Recreation center ,https://encrypted-tbn0.gstatic.com/images?q=tbn:ANd9GcR8vRgB6qHO44ZNbPZ6tzC0gweFnRoilU8g7riyL5GBF0SpIKTJzQlDzkRvkQw&s
421,Ramashka Tours Hurghada - Bus Tours - Boat Trips,4.7,126,Sightseeing tour agency,Scuba & Snorkelling  Swim with Dolphins  Boat Tours  Sightseeing Tours  Private Tours,27.226173,33.838056,hurghada,Sightseeing tour agency Scuba & Snorkelling  Swim with Dolphins  Boat Tours  Sightseeing Tours  Private Tours,https://encrypted-tbn0.gstatic.com/images?q=tbn:ANd9GcSUAU7L3VoTC0_Ucj6gmNQW4EdLbuNetyfAx2DrB6b3gY9eO923xv-kFY9bM0g&s
